[{"country":"indonesia","code":"1108","province":"Aceh","city":"Kab. Aceh Utara","query":"\"kabupaten aceh utara\" OR \"kab. aceh utara\" OR \"aceh utara\"","name":"Kab. Aceh Utara","lon":97.2221421,"id":"a403d6e176b5f430994f1c17d2fa71c1","lat":4.9786331},
{"country":"indonesia","code":"1114","province":"Aceh","city":"Kab. Aceh Jaya","query":"\"kabupaten aceh jaya\" OR \"kab. aceh jaya\" OR \"aceh jaya\"","name":"Kab. Aceh Jaya","lon":95.6457951,"id":"2546dabdfb2c18405be508748cd4f5e1","lat":4.7873684},
{"country":"indonesia","code":"1101","province":"Aceh","city":"Kab. Aceh Selatan","query":"\"kabupaten aceh selatan\" OR \"kab. aceh selatan\" OR \"aceh selatan\"","name":"Kab. Aceh Selatan","lon":97.3516558,"id":"489f1a483f41c604a0d70f3cb000ada0","lat":3.3115056},
{"country":"indonesia","code":"1117","province":"Aceh","city":"Kab. Bener Meriah","query":"\"kabupaten bener meriah\" OR \"kab. bener meriah\" OR \"bener meriah\"","name":"Kab. Bener Meriah","lon":96.9525224,"id":"f0a26deaacd625f9f9484c2d3b2435a5","lat":4.7513606},
{"country":"indonesia","code":"1210","province":"Sumatera Utara","city":"Kab. Labuhan Batu","query":"\"kabupaten labuhan batu\" OR \"kab. labuhan batu\" OR \"labuhan batu\"","name":"Kab. Labuhan Batu","lon":100.1703257,"id":"9751a96bbccf1adebf91537ce65e7db5","lat":2.3439863},
{"country":"indonesia","code":"1308","province":"Sumatera Barat","city":"Kab. Pasaman","query":"\"kabupaten pasaman\" OR \"kab. pasaman\" OR \"pasaman\"","name":"Kab. Pasaman","lon":99.7901781,"id":"eb01a46e06bbc940c0d01216891578eb","lat":0.1288752},
{"country":"indonesia","code":"1112","province":"Aceh","city":"Kab. Aceh Barat Daya","query":"\"kabupaten aceh barat daya\" OR \"kab. aceh barat daya\" OR \"aceh barat daya\"","name":"Kab. Aceh Barat Daya","lon":97.0068393,"id":"2e6062fb2ff0b5709448947c40be3fff","lat":3.7963426},
{"country":"indonesia","code":"1105","province":"Aceh","city":"Kab. Aceh Barat","query":"\"kabupaten aceh barat\" OR \"kab. aceh barat\" OR \"aceh barat\"","name":"Kab. Aceh Barat","lon":96.1526985,"id":"18876386c7635fac323e6085287fc74d","lat":4.4542745},
{"country":"indonesia","code":"1221","province":"Sumatera Utara","city":"Kab. Padang Lawas","query":"\"kabupaten padang lawas\" OR \"kab. padang lawas\" OR \"padang lawas\"","name":"Kab. Padang Lawas","lon":99.8124935,"id":"4cb6b599cf1950675278bd8f34a418b1","lat":1.1186977},
{"country":"indonesia","code":"1103","province":"Aceh","city":"Kab. Aceh Timur","query":"\"kabupaten aceh timur\" OR \"kab. aceh timur\" OR \"aceh timur\"","name":"Kab. Aceh Timur","lon":97.6114217,"id":"f21219cf110786b8bc2c1fa940fb7e5b","lat":4.5224111},
{"country":"indonesia","code":"1113","province":"Aceh","city":"Kab. Gayo Lues","query":"\"kabupaten gayo lues\" OR \"kab. gayo lues\" OR \"gayo lues\"","name":"Kab. Gayo Lues","lon":97.3516558,"id":"fad4c2101c1e97058a41a5b5bac6dce2","lat":3.955165},
{"country":"indonesia","code":"1109","province":"Aceh","city":"Kab. Simeulue","query":"\"kabupaten simeulue\" OR \"kab. simeulue\" OR \"simeulue\"","name":"Kab. Simeulue","lon":96.0255738,"id":"5259254033166058f164db66e0376875","lat":2.6439724},
{"country":"indonesia","code":"1116","province":"Aceh","city":"Kab. Aceh Tamiang","query":"\"kabupaten aceh tamiang\" OR \"kab. aceh tamiang\" OR \"aceh tamiang\"","name":"Kab. Aceh Tamiang","lon":98.0028892,"id":"dc9996cc589edba2a42e240b3a1a0828","lat":4.2328871},
{"country":"indonesia","code":"1115","province":"Aceh","city":"Kab. Nagan Raya","query":"\"kabupaten nagan raya\" OR \"kab. nagan raya\" OR \"nagan raya\"","name":"Kab. Nagan Raya","lon":96.4929797,"id":"ceafe335003a6bdd3d04189cf98ba35f","lat":4.1248406},
{"country":"indonesia","code":"1175","province":"Aceh","city":"Kota Subulussalam","query":"\"kota subulussalam\" OR \"subulussalam\"","name":"Kota Subulussalam","lon":98.0165205,"id":"20bed3693be29af6c43f4b618adba5e0","lat":2.6449927},
{"country":"indonesia","code":"1201","province":"Sumatera Utara","city":"Kab. Tapanuli Tengah","query":"\"kabupaten tapanuli tengah\" OR \"kab. tapanuli tengah\" OR \"tapanuli tengah\"","name":"Kab. Tapanuli Tengah","lon":98.704075,"id":"90a64fe910d07edb6d4cb3a148c3b535","lat":1.8493299},
{"country":"indonesia","code":"1209","province":"Sumatera Utara","city":"Kab. Asahan","query":"\"kabupaten asahan\" OR \"kab. asahan\" OR \"asahan\"","name":"Kab. Asahan","lon":99.634135,"id":"73d991ec9f533c0a3a35d53298277cef","lat":2.8174722},
{"country":"indonesia","code":"1212","province":"Sumatera Utara","city":"Kab. Toba Samosir","query":"\"kabupaten toba samosir\" OR \"kab. toba samosir\" OR \"toba samosir\"","name":"Kab. Toba Samosir","lon":99.2785583,"id":"6efa25f869c653e81a518ba6bfddd8ae","lat":2.3502398},
{"country":"indonesia","code":"1174","province":"Aceh","city":"Kota Langsa","query":"\"kota langsa\" OR \"langsa\"","name":"Kota Langsa","lon":97.9641022,"id":"08c2e464e674ce563d32a0debfd62ca3","lat":4.4757799},
{"country":"indonesia","code":"1206","province":"Sumatera Utara","city":"Kab. Karo","query":"\"kabupaten karo\" OR \"kab. karo\" OR \"karo\"","name":"Kab. Karo","lon":98.265058,"id":"5c3439f828fed3be7b3615d23ef34d19","lat":3.1052909},
{"country":"indonesia","code":"1222","province":"Sumatera Utara","city":"Kab. Labuhan Batu Selatan","query":"\"kabupaten labuhan batu selatan\" OR \"kab. labuhan batu selatan\" OR \"labuhan batu selatan\"","name":"Kab. Labuhan Batu Selatan","lon":100.1703257,"id":"86c1512383f85343611b5f1e0bee5c82","lat":1.8799353},
{"country":"indonesia","code":"1171","province":"Aceh","city":"Kota Banda Aceh","query":"\"kota banda aceh\" OR \"banda aceh\" OR \"serambi mekkah\"","name":"Kota Banda Aceh","lon":95.3237559,"id":"ad02eb5ad9d2d3a97dde293781b7eab1","lat":5.5482904},
{"country":"indonesia","code":"1271","province":"Sumatera Utara","city":"Kota Medan","query":"\"kota medan\" OR \"medan\" OR \"kota melayu deli\"","name":"Kota Medan","lon":98.6722227,"id":"286b2f443284868f4f13a5c005d221d4","lat":3.5951956},
{"country":"indonesia","code":"1276","province":"Sumatera Utara","city":"Kota Tebing Tinggi","query":"\"kota tebing tinggi\" OR \"tebing tinggi\"","name":"Kota Tebing Tinggi","lon":99.2082661,"id":"a39a98c3ccad643207b9c2bcfd9566ed","lat":3.3805315},
{"country":"indonesia","code":"1302","province":"Sumatera Barat","city":"Kab. Solok","query":"\"kabupaten solok\" OR \"kab. solok\" OR \"solok\"","name":"Kab. Solok","lon":100.8903099,"id":"d124765cdfce396105972858b02c1223","lat":-0.9643838},
{"country":"indonesia","code":"1304","province":"Sumatera Barat","city":"Kab. Tanah Datar","query":"\"kabupaten tanah datar\" OR \"kab. tanah datar\" OR \"tanah datar\"","name":"Kab. Tanah Datar","lon":100.5746224,"id":"b4370a551629f118060057221578ef51","lat":-0.4797043},
{"country":"indonesia","code":"1118","province":"Aceh","city":"Kab. Pidie Jaya","query":"\"kabupaten pidie jaya\" OR \"kab. pidie jaya\" OR \"pidie jaya\"","name":"Kab. Pidie Jaya","lon":96.195132,"id":"8a16e9f69fbfbce859f3ec8ba1098e3a","lat":5.1548063},
{"country":"indonesia","code":"1303","province":"Sumatera Barat","city":"Kab. Sijunjung","query":"\"kabupaten sijunjung\" OR \"kab. sijunjung\" OR \"sijunjung\"","name":"Kab. Sijunjung","lon":100.8627167,"id":"927d3b70d208f699d88c9c6cc76bceca","lat":-0.6480415},
{"country":"indonesia","code":"1111","province":"Aceh","city":"Kab. Bireuen","query":"\"kabupaten bireuen\" OR \"kab. bireuen\" OR \"bireuen\" OR \"kota juang\"","name":"Kab. Bireuen","lon":96.663812,"id":"dc3af6bcc746a550bfb57980a76a818e","lat":5.1086446},
{"country":"indonesia","code":"1224","province":"Sumatera Utara","city":"Kab. Nias Utara","query":"\"kabupaten nias utara\" OR \"kab. nias utara\" OR \"nias utara\"","name":"Kab. Nias Utara","lon":97.394882,"id":"bf2b10cf0a3026ff656c4f6377740332","lat":1.3166036},
{"country":"indonesia","code":"1225","province":"Sumatera Utara","city":"Kab. Nias Barat","query":"\"kabupaten nias barat\" OR \"kab. nias barat\" OR \"nias barat\"","name":"Kab. Nias Barat","lon":97.4814163,"id":"a6c69bf9758230aba66444ab47c2af95","lat":1.0116383},
{"country":"indonesia","code":"1173","province":"Aceh","city":"Kota Lhokseumawe","query":"\"kota lhokseumawe\" OR \"lhokseumawe\" OR \"kota petrodolar\"","name":"Kota Lhokseumawe","lon":97.1413222,"id":"b1427d8b92615da6201134dda90bf343","lat":5.1811638},
{"country":"indonesia","code":"1305","province":"Sumatera Barat","city":"Kab. Padang Pariaman","query":"\"kabupaten padang pariaman\" OR \"kab. padang pariaman\" OR \"padang pariaman\"","name":"Kab. Padang Pariaman","lon":100.2151578,"id":"a8c282ec2fc8d714ccf8e8344def7e58","lat":-0.5546757},
{"country":"indonesia","code":"1205","province":"Sumatera Utara","city":"Kab. Langkat","query":"\"kabupaten langkat\" OR \"kab. langkat\" OR \"langkat\"","name":"Kab. Langkat","lon":98.3088441,"id":"7526d89269e5578229f1cbde6c35a55a","lat":3.8653916},
{"country":"indonesia","code":"1220","province":"Sumatera Utara","city":"Kab. Padang Lawas Utara","query":"\"kabupaten padang lawas utara\" OR \"kab. padang lawas utara\" OR \"padang lawas utara\"","name":"Kab. Padang Lawas Utara","lon":99.634135,"id":"4e6137fa62091a16f3fb28a6381d4e00","lat":1.5758644},
{"country":"indonesia","code":"1275","province":"Sumatera Utara","city":"Kota Binjai","query":"\"kota binjai\" OR \"binjai\" OR \"kota rambutan\"","name":"Kota Binjai","lon":98.5025286,"id":"a49564679955a73849c5588c29afba4c","lat":3.6135482},
{"country":"indonesia","code":"1277","province":"Sumatera Utara","city":"Kota Padang Sidempuan","query":"\"kota padang sidempuan\" OR \"padang sidempuan\"","name":"Kota Padang Sidempuan","lon":99.2730146,"id":"585aafc64bdf72988a3b09c24f051cff","lat":1.3721801},
{"country":"indonesia","code":"1301","province":"Sumatera Barat","city":"Kab. Pesisir Selatan","query":"\"kabupaten pesisir selatan\" OR \"kab. pesisir selatan\" OR \"pesisir selatan\"","name":"Kab. Pesisir Selatan","lon":100.8903099,"id":"039a01ce1570bd6e0b2f27f55be6a3ce","lat":-1.7223147},
{"country":"indonesia","code":"1106","province":"Aceh","city":"Kab. Aceh Besar","query":"\"kabupaten aceh besar\" OR \"kab. aceh besar\" OR \"aceh besar\"","name":"Kab. Aceh Besar","lon":95.4777811,"id":"717422760230dbe3776c369af4fd255a","lat":5.4529168},
{"country":"indonesia","code":"1107","province":"Aceh","city":"Kab. Pidie","query":"\"kabupaten pidie\" OR \"kab. pidie\" OR \"pidie\"","name":"Kab. Pidie","lon":95.9356872,"id":"a5f17aef467b0119376cfae384e5ab9a","lat":5.3704132},
{"country":"indonesia","code":"1204","province":"Sumatera Utara","city":"Kab. Nias","query":"\"kabupaten nias\" OR \"kab. nias\" OR \"nias\"","name":"Kab. Nias","lon":97.7416703,"id":"e30dd419aaf302029c01bde5859ca457","lat":1.0869444},
{"country":"indonesia","code":"1273","province":"Sumatera Utara","city":"Kota Sibolga","query":"\"kota sibolga\" OR \"sibolga\"","name":"Kota Sibolga","lon":98.7851121,"id":"074d66e315e7c656a26579b9603c3d87","lat":1.7368371},
{"country":"indonesia","code":"1102","province":"Aceh","city":"Kab. Aceh Tenggara","query":"\"kabupaten aceh tenggara\" OR \"kab. aceh tenggara\" OR \"aceh tenggara\"","name":"Kab. Aceh Tenggara","lon":97.6982272,"id":"ac4af41ee1e65a1aa0781686e5c8201f","lat":3.3088666},
{"country":"indonesia","code":"1104","province":"Aceh","city":"Kab. Aceh Tengah","query":"\"kabupaten aceh tengah\" OR \"kab. aceh tengah\" OR \"aceh tengah\"","name":"Kab. Aceh Tengah","lon":96.8350999,"id":"2e3b9fac00eecf6265b9723a4d359489","lat":4.4482641},
{"country":"indonesia","code":"1110","province":"Aceh","city":"Kab. Aceh Singkil","query":"\"kabupaten aceh singkil\" OR \"kab. aceh singkil\" OR \"aceh singkil\"","name":"Kab. Aceh Singkil","lon":97.87216,"id":"e440625696c58e1e34e99edb9df52297","lat":2.3589459},
{"country":"indonesia","code":"1172","province":"Aceh","city":"Kota Sabang","query":"\"kota sabang\" OR \"sabang\"","name":"Kota Sabang","lon":95.336574,"id":"5574fe1357b055b0a5c075d13e270d24","lat":5.880241},
{"country":"indonesia","code":"1203","province":"Sumatera Utara","city":"Kab. Tapanuli Selatan","query":"\"kabupaten tapanuli selatan\" OR \"kab. tapanuli selatan\" OR \"tapanuli selatan\"","name":"Kab. Tapanuli Selatan","lon":99.2785583,"id":"5ef4f627d08dff4d760cb5b560109e51","lat":1.5774933},
{"country":"indonesia","code":"1217","province":"Sumatera Utara","city":"Kab. Samosir","query":"\"kabupaten samosir\" OR \"kab. samosir\" OR \"samosir\"","name":"Kab. Samosir","lon":98.7921836,"id":"a964538476fe5b4272be5f2cdcd0e394","lat":2.6274431},
{"country":"indonesia","code":"1215","province":"Sumatera Utara","city":"Kab. Pakpak Bharat","query":"\"kabupaten pakpak bharat\" OR \"kab. pakpak bharat\" OR \"pakpak bharat\"","name":"Kab. Pakpak Bharat","lon":98.2212979,"id":"fb9a205978ed9a174642e07649c24fd4","lat":2.5135376},
{"country":"indonesia","code":"1216","province":"Sumatera Utara","city":"Kab. Humbang Hasundutan","query":"\"kabupaten humbang hasundutan\" OR \"kab. humbang hasundutan\" OR \"humbang hasundutan\"","name":"Kab. Humbang Hasundutan","lon":98.5721016,"id":"2e3c2a999a830bc6ab82afe59a251b3a","lat":2.1988508},
{"country":"indonesia","code":"1223","province":"Sumatera Utara","city":"Kab. Labuhan Batu Utara","query":"\"kabupaten labuhan batu utara\" OR \"kab. labuhan batu utara\" OR \"labuhan batu utara\"","name":"Kab. Labuhan Batu Utara","lon":99.8124935,"id":"db252c8698fbfc32b586c695197192df","lat":2.3465638},
{"country":"indonesia","code":"1306","province":"Sumatera Barat","city":"Kab. Agam","query":"\"kabupaten agam\" OR \"kab. agam\" OR \"agam\"","name":"Kab. Agam","lon":100.1703257,"id":"e1a046234ac4050ea417e1850af07f64","lat":-0.2209392},
{"country":"indonesia","code":"1272","province":"Sumatera Utara","city":"Kota Pematang Siantar","query":"\"kota pematang siantar\" OR \"pematang siantar\"","name":"Kota Pematang Siantar","lon":99.0626377,"id":"3cf853d669c0896a5506d48c87d19d13","lat":2.965147},
{"country":"indonesia","code":"1307","province":"Sumatera Barat","city":"Kab. Lima Puluh Kota","query":"\"kota lima puluh kota\" OR \"lima puluh kota\"","name":"Kab. Lima Puluh Kota","lon":100.647812,"id":"e4365a32aa8eb3204b927d13e0f02a0f","lat":-0.1791407},
{"country":"indonesia","code":"1202","province":"Sumatera Utara","city":"Kab. Tapanuli Utara","query":"\"kabupaten tapanuli utara\" OR \"kab. tapanuli utara\" OR \"tapanuli utara\"","name":"Kab. Tapanuli Utara","lon":99.1013498,"id":"d3d849e53653399633c3ab725256118a","lat":2.0405246},
{"country":"indonesia","code":"1207","province":"Sumatera Utara","city":"Kab. Deli Serdang","query":"\"kabupaten deli serdang\" OR \"kab. deli serdang\" OR \"deli serdang\"","name":"Kab. Deli Serdang","lon":98.704075,"id":"cc24ebf874f06f544090189ab580f8e0","lat":3.4201802},
{"country":"indonesia","code":"1211","province":"Sumatera Utara","city":"Kab. Dairi","query":"\"kabupaten dairi\" OR \"kab. dairi\" OR \"dairi\"","name":"Kab. Dairi","lon":98.265058,"id":"991184ca75a7335ca3474f2bfc36ab49","lat":2.8675801},
{"country":"indonesia","code":"1208","province":"Sumatera Utara","city":"Kab. Simalungun","query":"\"kabupaten simalungun\" OR \"kab. simalungun\" OR \"simalungun\"","name":"Kab. Simalungun","lon":99.2785583,"id":"46273891d4e7f31a938cfe652828c25a","lat":2.9781612},
{"country":"indonesia","code":"1214","province":"Sumatera Utara","city":"Kab. Nias Selatan","query":"\"kabupaten nias selatan\" OR \"kab. nias selatan\" OR \"nias selatan\"","name":"Kab. Nias Selatan","lon":97.8286368,"id":"a3b7445d1dae81db35acb0fc9223e582","lat":0.7086091},
{"country":"indonesia","code":"1218","province":"Sumatera Utara","city":"Kab. Serdang Bedagai","query":"\"kabupaten serdang bedagai\" OR \"kab. serdang bedagai\" OR \"serdang bedagai\"","name":"Kab. Serdang Bedagai","lon":99.0571089,"id":"a8d1b48b088049f7f18a0e0d952b9a5d","lat":3.3371694},
{"country":"indonesia","code":"1219","province":"Sumatera Utara","city":"Kab. Batu Bara","query":"\"kabupaten batu bara\" OR \"kab. batu bara\" OR \"batu bara\"","name":"Kab. Batu Bara","lon":99.5006143,"id":"83953712c84d87bd8307a523d6b74d6f","lat":3.1740979},
{"country":"indonesia","code":"1213","province":"Sumatera Utara","city":"Kab. Mandailing Natal","query":"\"kabupaten mandailing natal\" OR \"kab. mandailing natal\" OR \"mandailing natal\"","name":"Kab. Mandailing Natal","lon":99.3673084,"id":"cc85fe8a8091a55f77a251e6ea08a67c","lat":0.7432372},
{"country":"indonesia","code":"1274","province":"Sumatera Utara","city":"Kota Tanjung Balai","query":"\"kota tanjung balai\" OR \"tanjung balai\" OR tanjungbalai OR \"kota kerang\"","name":"Kota Tanjung Balai","lon":99.7985457,"id":"6ee0477c92625e978fa39a5343579d94","lat":2.9662346},
{"country":"indonesia","code":"1278","province":"Sumatera Utara","city":"Kota Gunungsitoli","query":"\"kota gunungsitoli\" OR \"gunungsitoli\"","name":"Kota Gunungsitoli","lon":97.6084204,"id":"47a6688f9f22a40adf698b157afc3a53","lat":1.2783137},
{"country":"indonesia","code":"1572","province":"Jambi","city":"Kota Sungai Penuh","query":"\"kota sungai penuh\" OR \"sungai penuh\"","name":"Kota Sungai Penuh","lon":101.3204164,"id":"4724520fdb33549b5d3b9c3abb89b85b","lat":-2.1225969},
{"country":"indonesia","code":"1605","province":"Sumatera Selatan","city":"Kab. Musi Rawas","query":"\"kabupaten musi rawas\" OR \"kab. musi rawas\" OR \"musi rawas\"","name":"Kab. Musi Rawas","lon":103.0817903,"id":"fc93e4929393d3a3251e28f2d187c073","lat":-3.0956537},
{"country":"indonesia","code":"1504","province":"Jambi","city":"Kab. Batang Hari","query":"\"kabupaten batang hari\" OR \"kab. batang hari\" OR \"batang hari\"","name":"Kab. Batang Hari","lon":103.0817903,"id":"08772a0fe5a008abe2cabb824133b512","lat":-1.7083922},
{"country":"indonesia","code":"1401","province":"Riau","city":"Kab. Kampar","query":"\"kabupaten kampar\" OR \"kab. kampar\" OR \"kampar\"","name":"Kab. Kampar","lon":101.1617356,"id":"d132e502a7395732a5636ff9dfe538ba","lat":0.146671},
{"country":"indonesia","code":"1310","province":"Sumatera Barat","city":"Kab. Dharmasraya","query":"\"kabupaten dharmasraya\" OR \"kab. dharmasraya\" OR \"dharmasraya\"","name":"Kab. Dharmasraya","lon":101.6157773,"id":"75c21a7edb7ef89b4611e872f5f54cb3","lat":-1.1120568},
{"country":"indonesia","code":"1312","province":"Sumatera Barat","city":"Kab. Pasaman Barat","query":"\"kabupaten pasaman barat\" OR \"kab. pasaman barat\" OR \"pasaman barat\"","name":"Kab. Pasaman Barat","lon":99.634135,"id":"89bd6c6610b84a1df0ea118ea15e5e7b","lat":0.2213005},
{"country":"indonesia","code":"1405","province":"Riau","city":"Kab. Pelalawan","query":"\"kabupaten pelalawan\" OR \"kab. pelalawan\" OR \"pelalawan\"","name":"Kab. Pelalawan","lon":102.1632718,"id":"2c3fb64031497ab7a485787faf86fcec","lat":0.5139797},
{"country":"indonesia","code":"1402","province":"Riau","city":"Kab. Indragiri Hulu","query":"\"kabupaten indragiri hulu\" OR \"kab. indragiri hulu\" OR \"indragiri hulu\"","name":"Kab. Indragiri Hulu","lon":102.2547919,"id":"2b419d56acd51f04fa3eb215d4146a98","lat":-0.7361181},
{"country":"indonesia","code":"1309","province":"Sumatera Barat","city":"Kab. Kepulauan Mentawai","query":"\"kabupaten kepulauan mentawai\" OR \"kab. kepulauan mentawai\" OR \"kepulauan mentawai\"","name":"Kab. Kepulauan Mentawai","lon":98.9245343,"id":"2c713a415975dce44527ff0aa8f0e991","lat":-1.426001},
{"country":"indonesia","code":"1403","province":"Riau","city":"Kab. Bengkalis","query":"\"kabupaten bengkalis\" OR \"kab. bengkalis\" OR \"bengkalis\"","name":"Kab. Bengkalis","lon":101.6157773,"id":"7efa03a44974abfb5b994b969cd14432","lat":1.4139187},
{"country":"indonesia","code":"1377","province":"Sumatera Barat","city":"Kota Pariaman","query":"\"kota pariaman\" OR \"pariaman\"","name":"Kota Pariaman","lon":100.1336713,"id":"30a228d26243b3f35bcccfd6705a4025","lat":-0.6115939},
{"country":"indonesia","code":"1471","province":"Riau","city":"Kota Pekanbaru","query":"\"kota pekanbaru\" OR \"pekanbaru\" OR \"kota madani\"","name":"Kota Pekanbaru","lon":101.4477793,"id":"7ef3d76f3d21784a56161c28047ca6db","lat":0.5070677},
{"country":"indonesia","code":"2104","province":"Kepulauan Riau","city":"Kab. Lingga","query":"\"kabupaten lingga\" OR \"kab. lingga\" OR \"lingga\"","name":"Kab. Lingga","lon":104.4257533,"id":"2948a69b02e604d71becda655b5deaa1","lat":-0.4726065},
{"country":"indonesia","code":"2171","province":"Kepulauan Riau","city":"Kota Batam","query":"\"kota batam\" OR \"batam\" OR \"bandar dunia madani\"","name":"Kota Batam","lon":104.0304535,"id":"0781742189f33dba5e5aa98b9749c5d0","lat":1.0456264},
{"country":"indonesia","code":"3101","province":"DKI Jakarta","city":"Kab. Kep. Seribu","query":"\"kabupaten kep. seribu\" OR \"kab. kep. seribu\" OR \"kep. seribu\"","name":"Kab. Kep. Seribu","lon":106.5071981,"id":"861fffc67429af1171f480ef8e2a0c46","lat":-5.7985265},
{"country":"indonesia","code":"3278","province":"Jawa Barat","city":"Kota Tasikmalaya","query":"\"kota tasikmalaya\" OR \"tasikmalaya\" OR \"kota santri\" OR \"kota resik\" OR \"mutiara dari timur\" OR \"delhi van java\"","name":"Kota Tasikmalaya","lon":108.2171633,"id":"d694b759af2c4506392b96ab1a8fd2d7","lat":-7.3505808},
{"country":"indonesia","code":"13","province":"Sumatera Barat","query":"\"prov. sumatera barat\" OR \"sumatera barat\" OR sumbar OR \"west sumatera\"","name":"Sumatera Barat","lon":100.8000051,"id":"e24c99d8cfaeeac44c65b921a6057d1b","lat":-0.7399397},
{"country":"indonesia","code":"33","province":"Jawa Tengah","query":"\"prov. jawa tengah\" OR \"jawa tengah\" OR jateng OR \"central java\"","name":"Jawa Tengah","lon":110.1402594,"id":"e2f95b153b7c26ccb4af43e7d468f244","lat":-7.150975},
{"country":"indonesia","code":"36","province":"Banten","query":"\"prov. banten\" OR \"banten\"","name":"Banten","lon":106.0640179,"id":"65cc6d98a174db893eaeeafec48d5d5d","lat":-6.4058172},
{"country":"indonesia","code":"61","province":"Kalimantan Barat","query":"\"prov. kalimantan barat\" OR \"kalimantan barat\" OR kalbar OR \"west kalimantan\"","name":"Kalimantan Barat","lon":111.4752851,"id":"60367981b46f64cca446022c704c2eea","lat":-0.2787808},
{"country":"indonesia","code":"16","province":"Sumatera Selatan","query":"\"prov. sumatera selatan\" OR \"sumatera selatan\" OR sumsel OR \"south sumatera\"","name":"Sumatera Selatan","lon":103.914399,"id":"cb363c536b1632cbca260d62169e851f","lat":-3.3194374},
{"country":"indonesia","code":"12","province":"Sumatera Utara","query":"\"prov. sumatera utara\" OR \"sumatera utara\" OR sumut OR \"north sumatera\"","name":"Sumatera Utara","lon":98.9784887,"id":"b72bb52c90d637979e85554fd2931515","lat":2.0108563},
{"country":"indonesia","code":"14","province":"Riau","query":"\"prov. riau\" OR \"riau\"","name":"Riau","lon":101.7068294,"id":"9553a2b50ddb9ef7310f5cc5d190577f","lat":0.2933469},
{"country":"indonesia","code":"71","province":"Sulawesi Utara","query":"\"prov. sulawesi utara\" OR \"sulawesi utara\"","name":"Sulawesi Utara","lon":123.9750018,"id":"a7899316b98e6c1639955436548e1ccc","lat":0.6246932},
{"country":"indonesia","code":"1373","province":"Sumatera Barat","city":"Kota Sawah Lunto","query":"\"kota sawah lunto\" OR \"sawah lunto\"","name":"Kota Sawah Lunto","lon":100.7356108,"id":"6cca33de5b5200e3dc7cf75c46c28c5a","lat":-0.5966493},
{"country":"indonesia","code":"18","province":"Lampung","query":"\"prov. lampung\" OR \"lampung\"","name":"Lampung","lon":105.4068079,"id":"d526b520cf7d3ebb62690a7a8acf7750","lat":-4.5585849},
{"country":"indonesia","code":"19","province":"Kepulauan Bangka Belitung","query":"\"prov. kepulauan bangka belitung\" OR \"kepulauan bangka belitung\"","name":"Kepulauan Bangka Belitung","lon":106.4405872,"id":"575a0b9661973cfcb18504b7df3ba3a6","lat":-2.7410513},
{"country":"indonesia","code":"72","province":"Sulawesi Tengah","query":"\"prov. sulawesi tengah\" OR \"sulawesi tengah\" OR sulteng OR \"central sulawesi\"","name":"Sulawesi Tengah","lon":121.4456179,"id":"9e686099124cb636067cc609428fc0e0","lat":-1.4300254},
{"country":"indonesia","code":"1509","province":"Jambi","city":"Kab. Tebo","query":"\"kabupaten tebo\" OR \"kab. tebo\" OR \"tebo\"","name":"Kab. Tebo","lon":102.3463875,"id":"7fb0635721835955c57d08cfd9c55990","lat":-1.2592999},
{"country":"indonesia","code":"1609","province":"Sumatera Selatan","city":"Kab. Ogan Komering Ulu Selatan","query":"\"kabupaten ogan komering ulu selatan\" OR \"kab. ogan komering ulu selatan\" OR \"ogan komering ulu selatan\"","name":"Kab. Ogan Komering Ulu Selatan","lon":104.0072348,"id":"87a7a9c1aa3b754120c82a2ed46acb6e","lat":-4.6681951},
{"country":"indonesia","code":"1705","province":"Bengkulu","city":"Kab. Seluma","query":"\"kabupaten seluma\" OR \"kab. seluma\" OR \"seluma\"","name":"Kab. Seluma","lon":102.7135121,"id":"dd1c1f7a040edfed3e6bdbe6af6be7db","lat":-4.0499387},
{"country":"indonesia","code":"1809","province":"Lampung","city":"Kab. Pesawaran","query":"\"kabupaten pesawaran\" OR \"kab. pesawaran\" OR \"pesawaran\"","name":"Kab. Pesawaran","lon":105.0791228,"id":"e494d24dcf6ae7ecce59ca794cb04f1c","lat":-5.493245},
{"country":"indonesia","code":"1811","province":"Lampung","city":"Kab. Mesuji","query":"\"kabupaten mesuji\" OR \"kab. mesuji\" OR \"mesuji\"","name":"Kab. Mesuji","lon":105.3131185,"id":"6cb771d394170d381c22d3fe20568571","lat":-4.0044783},
{"country":"indonesia","code":"1872","province":"Lampung","city":"Kota Metro","query":"\"kota metro\" OR \"metro\" OR \"kota wawai\" OR \"kota pendidikan\"","name":"Kota Metro","lon":105.3072646,"id":"b4fddd96741586ad87352cf3ab2cebdb","lat":-5.1178394},
{"country":"indonesia","code":"2101","province":"Kepulauan Riau","city":"Kab. Bintan","query":"\"kabupaten bintan\" OR \"kab. bintan\" OR \"bintan\"","name":"Kab. Bintan","lon":104.5189214,"id":"d57944fd497c3eb982ef1fc21cec8dc1","lat":1.0619173},
{"country":"indonesia","code":"3201","province":"Jawa Barat","city":"Kab. Bogor","query":"\"kabupaten bogor\" OR \"kab. bogor\" OR \"bogor\"","name":"Kab. Bogor","lon":106.6291304,"id":"391208a8c8a228e498abfb13446ed86d","lat":-6.5517758},
{"country":"indonesia","code":"3273","province":"Jawa Barat","city":"Kota Bandung","query":"\"kota bandung\" OR \"bandung\" OR bdg OR \"kota kembang\" OR \"paris van java\" OR \"kota pramuka\" OR \"kota zakat\" OR \"kota mode\"","name":"Kota Bandung","lon":107.6191228,"id":"d2d9f630981d0c7b7028e6377afe0158","lat":-6.9174639},
{"country":"indonesia","code":"31","province":"DKI Jakarta","query":"\"prov. dki jakarta\" OR \"dki jakarta\" OR \"jakarta\" OR \"kota metropolitan\" OR \"kota durian besar\"","name":"DKI Jakarta","lon":106.822745,"id":"0504657ead3a9c16d214e6be95e4e732","lat":-6.1744651},
{"country":"indonesia","code":"35","province":"Jawa Timur","query":"\"prov. jawa timur\" OR \"jawa timur\" OR jatim OR \"east java\"","name":"Jawa Timur","lon":112.2384017,"id":"2e166374a19d913a79f0530bb10ff80c","lat":-7.5360639},
{"country":"indonesia","code":"65","province":"Kalimantan Utara","query":"\"prov. kalimantan utara\" OR \"kalimantan utara\" OR kaltara OR \"north kalimantan\"","name":"Kalimantan Utara","lon":116.0413889,"id":"1ed520f684a8850a88cdb2ef5ec01ea5","lat":3.0730929},
{"country":"indonesia","code":"15","province":"Jambi","query":"\"prov. jambi\" OR \"jambi\"","name":"Jambi","lon":103.6131203,"id":"42d50f480cda6909583e42f31b3fcdaa","lat":-1.6101229},
{"country":"indonesia","code":"17","province":"Bengkulu","query":"\"prov. bengkulu\" OR \"bengkulu\"","name":"Bengkulu","lon":102.2607641,"id":"7dfad24d49fa90cede7500e83bf49772","lat":-3.7928451},
{"country":"indonesia","code":"21","province":"Kepulauan Riau","query":"\"prov. kepulauan riau\" OR \"kepulauan riau\"","name":"Kepulauan Riau","lon":108.1428669,"id":"0351a572d1d66737436d88b03ca2836a","lat":3.9456514},
{"country":"indonesia","code":"52","province":"Nusa Tenggara Barat","query":"\"prov. nusa tenggara barat\" OR \"nusa tenggara barat\" OR ntb OR \"west nusa tenggara\"","name":"Nusa Tenggara Barat","lon":117.3616476,"id":"614626d6ebbcc564683fc188a1bf6c92","lat":-8.6529334},
{"country":"indonesia","code":"53","province":"Nusa Tenggara Timur","query":"\"prov. nusa tenggara timur\" OR \"nusa tenggara timur\" OR ntt OR \"east nusa tenggara\"","name":"Nusa Tenggara Timur","lon":121.0793705,"id":"0065ad4aa34c4c7db8fef3182521850a","lat":-8.6573819},
{"country":"indonesia","code":"63","province":"Kalimantan Selatan","query":"\"prov. kalimantan selatan\" OR \"kalimantan selatan\" OR kalsel OR \"south kalimantan\"","name":"Kalimantan Selatan","lon":115.2837585,"id":"6f0900fa6e0ba5dabc91f3119a88f398","lat":-3.0926415},
{"country":"indonesia","code":"11","province":"Aceh","query":"\"prov. aceh\" OR \"aceh\"","name":"Aceh","lon":96.7493993,"id":"508595c92907ab7b8b9c702df01d106c","lat":4.695135},
{"country":"indonesia","code":"92","province":"Papua Barat","query":"\"prov. papua barat\" OR \"papua barat\"","name":"Papua Barat","lon":133.1747162,"id":"143d669023ec9aaea5b9405318fe9b8e","lat":-1.3361154},
{"country":"indonesia","code":"1813","province":"Lampung","city":"Kab. Pesisir Barat","query":"\"kabupaten pesisir barat\" OR \"kab. pesisir barat\" OR \"pesisir barat\"","name":"Kab. Pesisir Barat","lon":101.0824912,"id":"c25b3ea800cfe3d51ce5f869b366530c","lat":-2.2885814},
{"country":"indonesia","code":"32","province":"Jawa Barat","query":"\"prov. jawa barat\" OR \"jawa barat\" OR jabar OR \"west java\"","name":"Jawa Barat","lon":107.668887,"id":"fab5c08c6a4477730af1f97cfc7c31a0","lat":-7.090911},
{"country":"indonesia","code":"3203","province":"Jawa Barat","city":"Kab. Cianjur","query":"\"kabupaten cianjur\" OR \"kab. cianjur\" OR \"cianjur\"","name":"Kab. Cianjur","lon":107.1957203,"id":"c5ec88a0fbbd22ad27c4587f8bf39ec3","lat":-7.3579773},
{"country":"indonesia","code":"3279","province":"Jawa Barat","city":"Kota Banjar","query":"\"kota banjar\" OR \"banjar\"","name":"Kota Banjar","lon":108.5581899,"id":"332587bc7a9452f2214cc80e7cb4d90c","lat":-7.3745849},
{"country":"indonesia","code":"62","province":"Kalimantan Tengah","query":"\"prov. kalimantan tengah\" OR \"kalimantan tengah\" OR kalteng OR \"central kalimantan\"","name":"Kalimantan Tengah","lon":113.3823545,"id":"d2f4aeb92fbe3b08cb06d0b612ee4f3e","lat":-1.6814878},
{"country":"indonesia","code":"1376","province":"Sumatera Barat","city":"Kota Payakumbuh","query":"\"kota payakumbuh\" OR \"payakumbuh\"","name":"Kota Payakumbuh","lon":100.6309169,"id":"4d5bbce96ce8cb3e10fce9303d0fcd7e","lat":-0.2298336},
{"country":"indonesia","code":"1404","province":"Riau","city":"Kab. Indragiri Hilir","query":"\"kabupaten indragiri hilir\" OR \"kab. indragiri hilir\" OR \"indragiri hilir\"","name":"Kab. Indragiri Hilir","lon":102.989615,"id":"e636f3afaabcade87d72a8169c6b786d","lat":-0.1456733},
{"country":"indonesia","code":"1905","province":"Kepulauan Bangka Belitung","city":"Kab. Bangka Barat","query":"\"kabupaten bangka barat\" OR \"kab. bangka barat\" OR \"bangka barat\"","name":"Kab. Bangka Barat","lon":105.5005483,"id":"f79412610892fa80b1b320de607cb8e9","lat":-1.8405046},
{"country":"indonesia","code":"1906","province":"Kepulauan Bangka Belitung","city":"Kab. Belitung Timur","query":"\"kabupaten belitung timur\" OR \"kab. belitung timur\" OR \"belitung timur\"","name":"Kab. Belitung Timur","lon":108.1428669,"id":"8caedd89fb2418748362d0550b4fbf3f","lat":-2.8678037},
{"country":"indonesia","code":"3207","province":"Jawa Barat","city":"Kab. Ciamis","query":"\"kabupaten ciamis\" OR \"kab. ciamis\" OR \"ciamis\" OR \"kota tertib lalu lintas\" OR \"kota galendo\"","name":"Kab. Ciamis","lon":108.3492543,"id":"d650a5e86984f0ff34e437a0d5de7892","lat":-7.3320773},
{"country":"indonesia","code":"3209","province":"Jawa Barat","city":"Kab. Cirebon","query":"\"kabupaten cirebon\" OR \"kab. cirebon\" OR \"cirebon\"","name":"Kab. Cirebon","lon":108.4750846,"id":"2282686d52928eb180c14f779e037af9","lat":-6.6898876},
{"country":"indonesia","code":"3212","province":"Jawa Barat","city":"Kab. Indramayu","query":"\"kabupaten indramayu\" OR \"kab. indramayu\" OR \"indramayu\" OR \"kota mangga\"","name":"Kab. Indramayu","lon":108.3258329,"id":"a4946eaea75412424dcb5cf02d0a51f9","lat":-6.33731},
{"country":"indonesia","code":"3275","province":"Jawa Barat","city":"Kota Bekasi","query":"\"kota bekasi\" OR \"bekasi\" OR \"kota patriot\"","name":"Kota Bekasi","lon":107.1484521,"id":"81f7361a251bbd8ea2461e02259ba69e","lat":-6.2474466},
{"country":"indonesia","code":"34","province":"DI Yogyakarta","query":"\"prov. di yogyakarta\" OR \"di yogyakarta\"","name":"DI Yogyakarta","lon":110.3707141,"id":"51997a12bedf8bc4fad140477a02c012","lat":-7.7975915},
{"country":"indonesia","code":"51","province":"Bali","query":"\"prov. bali\" OR \"bali\" OR \"pulau dewata\" OR \"pulau seribu pura\"","name":"Bali","lon":115.188916,"id":"f6c6c717a9236dad870013d8c350a486","lat":-8.4095178},
{"country":"indonesia","code":"64","province":"Kalimantan Timur","query":"\"prov. kalimantan timur\" OR \"kalimantan timur\" OR kaltim OR \"east kalimantan\"","name":"Kalimantan Timur","lon":116.419389,"id":"559b9e1f1ecc72ef4dc09e83bf2ca012","lat":0.5386586},
{"country":"indonesia","code":"73","province":"Sulawesi Selatan","query":"\"prov. sulawesi selatan\" OR \"sulawesi selatan\" OR sulsel OR \"south sulawesi\"","name":"Sulawesi Selatan","lon":119.9740534,"id":"3e206a5ad59afa7ebb2901a8576ed669","lat":-3.6687994},
{"country":"indonesia","code":"74","province":"Sulawesi Tenggara","query":"\"prov. sulawesi tenggara\" OR \"sulawesi tenggara\" OR sultra OR \"southeast sulawesi\"","name":"Sulawesi Tenggara","lon":121.8020017,"id":"fcf364e1313fb5c4d7c51dad67f04d7c","lat":-3.5562244},
{"country":"indonesia","code":"76","province":"Sulawesi Barat","query":"\"prov. sulawesi barat\" OR \"sulawesi barat\" OR sulbar OR \"west sulawesi\"","name":"Sulawesi Barat","lon":119.2320784,"id":"753f80e603f4d3c8d7c555cfe00a67cb","lat":-2.8441371},
{"country":"indonesia","code":"75","province":"Gorontalo","query":"\"prov. gorontalo\" OR \"gorontalo\"","name":"Gorontalo","lon":123.0567693,"id":"5c93a263e46640a60bdc0ef63b361efb","lat":0.5435442},
{"country":"indonesia","code":"91","province":"Papua","query":"\"prov. papua\" OR \"papua\"","name":"Papua","lon":138.0803529,"id":"c87ab26041b58c1de5adff60ea2408b2","lat":-4.269928},
{"country":"indonesia","code":"3311","province":"Jawa Tengah","city":"Kab. Sukoharjo","query":"\"kabupaten sukoharjo\" OR \"kab. sukoharjo\" OR \"sukoharjo\"","name":"Kab. Sukoharjo","lon":110.8552919,"id":"9a19620a2e911b3b6275bb7d04bc86d4","lat":-7.6483506},
{"country":"indonesia","code":"3314","province":"Jawa Tengah","city":"Kab. Sragen","query":"\"kabupaten sragen\" OR \"kab. sragen\" OR \"sragen\"","name":"Kab. Sragen","lon":111.0091855,"id":"06afebad56791ed9980114af034f2602","lat":-7.43027},
{"country":"indonesia","code":"3318","province":"Jawa Tengah","city":"Kab. Pati","query":"\"kabupaten pati\" OR \"kab. pati\" OR \"pati\" OR \"kota pensiunan\" OR \"kota sawah\" OR \"kota 1000 dukun\" OR \"kota manggis\" OR \"hogwards van java\"","name":"Kab. Pati","lon":111.0460407,"id":"caa6b034f7a7d68378abb6875e7b8d6f","lat":-6.7449635},
{"country":"indonesia","code":"3324","province":"Jawa Tengah","city":"Kab. Kendal","query":"\"kabupaten kendal\" OR \"kab. kendal\" OR \"kendal\"","name":"Kab. Kendal","lon":110.1879106,"id":"439757c61dab150b972c90f150b675be","lat":-7.0265442},
{"country":"indonesia","code":"3505","province":"Jawa Timur","city":"Kab. Blitar","query":"\"kabupaten blitar\" OR \"kab. blitar\" OR \"blitar\" OR \"kota patria\" OR \"kota proklamator\" OR \"kota PETA\"","name":"Kab. Blitar","lon":112.2200091,"id":"80d2cd2772e0c829b58c132ec0733550","lat":-8.1308657},
{"country":"indonesia","code":"3512","province":"Jawa Timur","city":"Kab. Situbondo","query":"\"kabupaten situbondo\" OR \"kab. situbondo\" OR \"situbondo\" OR \"surga burung\" OR \"africa van java\"","name":"Kab. Situbondo","lon":114.1914951,"id":"e766735ecbbb88607158da9f33ce23a4","lat":-7.7888522},
{"country":"indonesia","code":"3520","province":"Jawa Timur","city":"Kab. Magetan","query":"\"kabupaten magetan\" OR \"kab. magetan\" OR \"magetan\" OR \"kota kaki gunung\" OR \"the sunset of east java\" OR \"the nice of java\"","name":"Kab. Magetan","lon":111.356045,"id":"b9a7ecfa89071fb2df07c3455550f9d4","lat":-7.6433138},
{"country":"indonesia","code":"3571","province":"Jawa Timur","city":"Kota Kediri","query":"\"kota kediri\" OR \"kediri\" OR \"kota tahu\"","name":"Kota Kediri","lon":112.0178286,"id":"96c925a7d1ad34bbfabbb54114fa2ceb","lat":-7.8480156},
{"country":"indonesia","code":"3576","province":"Jawa Timur","city":"Kota Mojokerto","query":"\"kota mojokerto\" OR \"mojokerto\" OR \"kota onde onde\"","name":"Kota Mojokerto","lon":112.4401329,"id":"bd13659c5a017522d0d9f96aa0375748","lat":-7.4704747},
{"country":"indonesia","code":"3578","province":"Jawa Timur","city":"Kota Surabaya","query":"\"kota surabaya\" OR \"surabaya\" OR \"kota pahlawan\" OR \"kota sby\"","name":"Kota Surabaya","lon":112.7520883,"id":"58abc80ada244ead077abd6f6f45320d","lat":-7.2574719},
{"country":"indonesia","code":"3603","province":"Banten","city":"Kab. Tangerang","query":"\"kabupaten tangerang\" OR \"kab. tangerang\" OR \"tangerang\"","name":"Kab. Tangerang","lon":106.4877072,"id":"6662c305c55631974fab60e616d03098","lat":-6.1872101},
{"country":"indonesia","code":"5205","province":"Nusa Tenggara Barat","city":"Kab. Dompu","query":"\"kabupaten dompu\" OR \"kab. dompu\" OR \"dompu\"","name":"Kab. Dompu","lon":118.4747173,"id":"e06130d257b4b14df14fcd897eb8acc0","lat":-8.4966318},
{"country":"indonesia","code":"5271","province":"Nusa Tenggara Barat","city":"Kota Mataram","query":"\"kota mataram\" OR \"mataram\"","name":"Kota Mataram","lon":116.1004894,"id":"160e606e6035a03f19afaa45e4d2523c","lat":-8.5769951},
{"country":"indonesia","code":"5312","province":"Nusa Tenggara Timur","city":"Kab. Sumba Barat","query":"\"kabupaten sumba barat\" OR \"kab. sumba barat\" OR \"sumba barat\"","name":"Kab. Sumba Barat","lon":119.3947135,"id":"51bf595b80647ed649e515e2d7e459a7","lat":-9.6548326},
{"country":"indonesia","code":"5315","province":"Nusa Tenggara Timur","city":"Kab. Manggarai Barat","query":"\"kabupaten manggarai barat\" OR \"kab. manggarai barat\" OR \"manggarai barat\"","name":"Kab. Manggarai Barat","lon":120.0665236,"id":"6db948053e2b115ef8352fb8f2b140c8","lat":-8.6688149},
{"country":"indonesia","code":"6104","province":"Kalimantan Barat","city":"Kab. Ketapang","query":"\"kabupaten ketapang\" OR \"kab. ketapang\" OR \"ketapang\"","name":"Kab. Ketapang","lon":109.971901,"id":"6d4a9206bf6d6e3fab4c187b59334bd9","lat":-1.859098},
{"country":"indonesia","code":"9271","province":"Papua Barat","city":"Kota Sorong","query":"\"kota sorong\" OR \"sorong\"","name":"Kota Sorong","lon":131.2954834,"id":"2489093461bc4fc99ca922fe5ecc1a35","lat":-0.8819986},
{"country":"indonesia","code":"7108","province":"Sulawesi Utara","city":"Kab. Bolaang Mongondow Utara","query":"\"kabupaten bolaang mongondow utara\" OR \"kab. bolaang mongondow utara\" OR \"bolaang mongondow utara\"","name":"Kab. Bolaang Mongondow Utara","lon":123.2657311,"id":"217d7cf3d64d7ee2a3d52988265b5679","lat":0.9070359},
{"country":"indonesia","code":"7206","province":"Sulawesi Tengah","city":"Kab. Morowali","query":"\"kabupaten morowali\" OR \"kab. morowali\" OR \"morowali\"","name":"Kab. Morowali","lon":121.9017954,"id":"b8b2f8fb9e46380d5e35d9a0e1e65b40","lat":-2.6987231},
{"country":"indonesia","code":"7208","province":"Sulawesi Tengah","city":"Kab. Parigi Moutong","query":"\"kabupaten parigi moutong\" OR \"kab. parigi moutong\" OR \"parigi moutong\"","name":"Kab. Parigi Moutong","lon":120.8039474,"id":"4fb631b782711642c27b3789645caecf","lat":0.5817607},
{"country":"indonesia","code":"7304","province":"Sulawesi Selatan","city":"Kab. Jeneponto","query":"\"kabupaten jeneponto\" OR \"kab. jeneponto\" OR \"jeneponto\"","name":"Kab. Jeneponto","lon":119.6730939,"id":"7bbb110d18ab1b7cf5d21e7d07aeeae7","lat":-5.554579},
{"country":"indonesia","code":"7602","province":"Sulawesi Barat","city":"Kab. Mamuju","query":"\"kabupaten mamuju\" OR \"kab. mamuju\" OR \"mamuju\"","name":"Kab. Mamuju","lon":118.9295737,"id":"36bd9c2ffbe6e2ca7b057ba3abb2251a","lat":-2.7293364},
{"country":"indonesia","code":"8101","province":"Maluku","city":"Kab. Maluku Tengah","query":"\"kabupaten maluku tengah\" OR \"kab. maluku tengah\" OR \"maluku tengah\"","name":"Kab. Maluku Tengah","lon":129.4864411,"id":"062b163eff92033eaa21a910d37658d8","lat":-3.0166501},
{"country":"indonesia","code":"9107","province":"Papua","city":"Kab. Puncak Jaya","query":"\"kabupaten puncak jaya\" OR \"kab. puncak jaya\" OR \"puncak jaya\"","name":"Kab. Puncak Jaya","lon":137.8427298,"id":"5fcd3683883f34b7d126797e43995048","lat":-3.4467891},
{"country":"indonesia","code":"9128","province":"Papua","city":"Kab. Deiyai","query":"\"kabupaten deiyai\" OR \"kab. deiyai\" OR \"deiyai\"","name":"Kab. Deiyai","lon":136.1279586,"id":"cdf43076f68e3e951d0b0a62f4828686","lat":-4.154975},
{"country":"indonesia","code":"1903","province":"Kepulauan Bangka Belitung","city":"Kab. Bangka Selatan","query":"\"kabupaten bangka selatan\" OR \"kab. bangka selatan\" OR \"bangka selatan\"","name":"Kab. Bangka Selatan","lon":106.4405872,"id":"43c7f3ddce7dcf61fc9d53a06cf1154c","lat":-2.7410513},
{"country":"indonesia","code":"1904","province":"Kepulauan Bangka Belitung","city":"Kab. Bangka Tengah","query":"\"kabupaten bangka tengah\" OR \"kab. bangka tengah\" OR \"bangka tengah\"","name":"Kab. Bangka Tengah","lon":106.2051484,"id":"5dca4adee6fe6ed970bb6aba25297434","lat":-2.4007823},
{"country":"indonesia","code":"3216","province":"Jawa Barat","city":"Kab. Bekasi","query":"\"kabupaten bekasi\" OR \"kab. bekasi\" OR \"bekasi\"","name":"Kab. Bekasi","lon":107.1484521,"id":"8886b671a137de2f08c17f48716e2800","lat":-6.2474466},
{"country":"indonesia","code":"3309","province":"Jawa Tengah","city":"Kab. Boyolali","query":"\"kabupaten boyolali\" OR \"kab. boyolali\" OR \"boyolali\" OR \"kota susu\" OR \"kota sapi\" OR \"new zealand van java\"","name":"Kab. Boyolali","lon":110.6883536,"id":"4b22d9f04da60ec0b7dcf0a35b0c5878","lat":-7.4317773},
{"country":"indonesia","code":"3371","province":"Jawa Tengah","city":"Kota Magelang","query":"\"kota magelang\" OR \"magelang\" OR \"kota getuk\"","name":"Kota Magelang","lon":110.2176941,"id":"9282c6c90db5d9ed44e8898c87ad46cb","lat":-7.4797342},
{"country":"indonesia","code":"3373","province":"Jawa Tengah","city":"Kota Salatiga","query":"\"kota salatiga\" OR \"salatiga\"","name":"Kota Salatiga","lon":110.5084366,"id":"0530e06771f0eccfab4b7690fca92306","lat":-7.3305234},
{"country":"indonesia","code":"3375","province":"Jawa Tengah","city":"Kota Pekalongan","query":"\"kota pekalongan\" OR \"pekalongan\" OR \"kota batik\" OR \"kota perdagangan\" OR \"kota minapolitan\" OR \"kota sehat\"","name":"Kota Pekalongan","lon":109.6745916,"id":"76cce74592d329a3db34f8cccbf3b407","lat":-6.8898362},
{"country":"indonesia","code":"3525","province":"Jawa Timur","city":"Kab. Gresik","query":"\"kabupaten gresik\" OR \"kab. gresik\" OR \"gresik\" OR \"kota pudak\"","name":"Kab. Gresik","lon":112.5721881,"id":"6659c6b6a70eed030f65c2203c5b405f","lat":-7.1550291},
{"country":"indonesia","code":"3572","province":"Jawa Timur","city":"Kota Blitar","query":"\"kota blitar\" OR \"blitar\"","name":"Kota Blitar","lon":112.1609056,"id":"54af59b8963c58c43e9f8bf3d8125594","lat":-8.0954627},
{"country":"indonesia","code":"5105","province":"Bali","city":"Kab. Klungkung","query":"\"kabupaten klungkung\" OR \"kab. klungkung\" OR \"klungkung\"","name":"Kab. Klungkung","lon":115.5444231,"id":"7e75028277cfbcadf713f37390617436","lat":-8.727807},
{"country":"indonesia","code":"5308","province":"Nusa Tenggara Timur","city":"Kab. Ende","query":"\"kabupaten ende\" OR \"kab. ende\" OR \"ende\"","name":"Kab. Ende","lon":121.7195459,"id":"c75dca2a192b60825f5a1c6380500313","lat":-8.6762912},
{"country":"indonesia","code":"5310","province":"Nusa Tenggara Timur","city":"Kab. Manggarai","query":"\"kabupaten manggarai\" OR \"kab. manggarai\" OR \"manggarai\"","name":"Kab. Manggarai","lon":120.3896651,"id":"ca1dfd05d02dbffa4ea67e7c2704c0c3","lat":-8.6796987},
{"country":"indonesia","code":"5314","province":"Nusa Tenggara Timur","city":"Kab. Rote Ndao","query":"\"kabupaten rote ndao\" OR \"kab. rote ndao\" OR \"rote ndao\"","name":"Kab. Rote Ndao","lon":123.1239049,"id":"84c36766de0888c2002e2cd355d8d074","lat":-10.7386421},
{"country":"indonesia","code":"6202","province":"Kalimantan Tengah","city":"Kab. Kotawaringin Timur","query":"\"kota kotawaringin timur\" OR \"kotawaringin timur\"","name":"Kab. Kotawaringin Timur","lon":112.8105512,"id":"a772b5dd9dea4e62c435c85277816b0a","lat":-2.1225475},
{"country":"indonesia","code":"6207","province":"Kalimantan Tengah","city":"Kab. Seruyan","query":"\"kabupaten seruyan\" OR \"kab. seruyan\" OR \"seruyan\"","name":"Kab. Seruyan","lon":112.4291464,"id":"5f728d9a203622cb5f59e02e4bde6c04","lat":-3.0123467},
{"country":"indonesia","code":"6409","province":"Kalimantan Timur","city":"Kab. Penajam Paser Utara","query":"\"kabupaten penajam paser utara\" OR \"kab. penajam paser utara\" OR \"penajam paser utara\"","name":"Kab. Penajam Paser Utara","lon":116.5137964,"id":"27dea451d8d3f28a472d37c5883a68f1","lat":-1.2917094},
{"country":"indonesia","code":"6472","province":"Kalimantan Timur","city":"Kota Samarinda","query":"\"kota samarinda\" OR \"samarinda\"","name":"Kota Samarinda","lon":117.1436154,"id":"45320c70db4792406d6eddb940a36f51","lat":-0.4948232},
{"country":"indonesia","code":"6504","province":"Kalimantan Utara","city":"Kab. Tana Tidung","query":"\"kabupaten tana tidung\" OR \"kab. tana tidung\" OR \"tana tidung\"","name":"Kab. Tana Tidung","lon":117.0794082,"id":"eef0462c781ca5b673e541b800b8ef2b","lat":3.551869},
{"country":"indonesia","code":"7111","province":"Sulawesi Utara","city":"Kab. Bolaang Mongondow Selatan","query":"\"kabupaten bolaang mongondow selatan\" OR \"kab. bolaang mongondow selatan\" OR \"bolaang mongondow selatan\"","name":"Kab. Bolaang Mongondow Selatan","lon":123.8411288,"id":"2a22865e2ae7a8f086067e72b47efc42","lat":0.4053215},
{"country":"indonesia","code":"7210","province":"Sulawesi Tengah","city":"Kab. Sigi","query":"\"kabupaten sigi\" OR \"kab. sigi\" OR \"sigi\"","name":"Kab. Sigi","lon":119.8815203,"id":"e074e1f843160393b0be8adf3a105df0","lat":-1.3859904},
{"country":"indonesia","code":"7317","province":"Sulawesi Selatan","city":"Kab. Luwu","query":"\"kabupaten luwu\" OR \"kab. luwu\" OR \"luwu\"","name":"Kab. Luwu","lon":120.2512728,"id":"7567d89ceae5e8f93556f3cd6b5ed948","lat":-3.3052214},
{"country":"indonesia","code":"7401","province":"Sulawesi Tenggara","city":"Kab. Kolaka","query":"\"kabupaten kolaka\" OR \"kab. kolaka\" OR \"kolaka\"","name":"Kab. Kolaka","lon":121.5826642,"id":"bcbd9c0fc3f228fa2b4001059f29912e","lat":-3.9946988},
{"country":"indonesia","code":"7406","province":"Sulawesi Tenggara","city":"Kab. Bombana","query":"\"kabupaten bombana\" OR \"kab. bombana\" OR \"bombana\"","name":"Kab. Bombana","lon":121.9017954,"id":"a8a48d07055bd8511701aba8016a2f19","lat":-4.6543462},
{"country":"indonesia","code":"8171","province":"Maluku","city":"Kota Ambon","query":"\"kota ambon\" OR \"ambon\"","name":"Kota Ambon","lon":128.1907723,"id":"ae6f6adccaabb28f648d3573ac3f9d1b","lat":-3.6553932},
{"country":"indonesia","code":"8271","province":"Maluku Utara","city":"Kota Ternate","query":"\"kota ternate\" OR \"ternate\"","name":"Kota Ternate","lon":127.3753792,"id":"375e03c7cbda9859a47d0bcb731fce91","lat":0.7898868},
{"country":"indonesia","code":"9108","province":"Papua","city":"Kab. Paniai","query":"\"kabupaten paniai\" OR \"kab. paniai\" OR \"paniai\"","name":"Kab. Paniai","lon":136.3624686,"id":"eab7e16e81f2c2b0a5616d79a8d04e8b","lat":-3.7876441},
{"country":"indonesia","code":"9115","province":"Papua","city":"Kab. Waropen","query":"\"kabupaten waropen\" OR \"kab. waropen\" OR \"waropen\"","name":"Kab. Waropen","lon":136.670534,"id":"dac8968f13bd9ae24138b3744ea32476","lat":-2.8435717},
{"country":"indonesia","code":"1371","province":"Sumatera Barat","city":"Kota Padang","query":"\"kota padang\" OR \"padang\"","name":"Kota Padang","lon":100.417181,"id":"950d16a17404c0a9cc9a6a72b7bf5961","lat":-0.9470832},
{"country":"indonesia","code":"1408","province":"Riau","city":"Kab. Siak","query":"\"kabupaten siak\" OR \"kab. siak\" OR \"siak\"","name":"Kab. Siak","lon":101.7979613,"id":"9fbb94ff3d0509ee3a095070a3ea544d","lat":0.8118812},
{"country":"indonesia","code":"1506","province":"Jambi","city":"Kab. Tanjung Jabung Barat","query":"\"kabupaten tanjung jabung barat\" OR \"kab. tanjung jabung barat\" OR \"tanjung jabung barat\"","name":"Kab. Tanjung Jabung Barat","lon":103.0817903,"id":"71deaf4266ab31281684c67c73c33629","lat":-1.105846},
{"country":"indonesia","code":"1607","province":"Sumatera Selatan","city":"Kab. Banyuasin","query":"\"kabupaten banyuasin\" OR \"kab. banyuasin\" OR \"banyuasin\"","name":"Kab. Banyuasin","lon":103.0817903,"id":"c0015919d5d44e020e1ecca2cec57072","lat":-3.0956537},
{"country":"indonesia","code":"1674","province":"Sumatera Selatan","city":"Kota Prabumulih","query":"\"kota prabumulih\" OR \"prabumulih\"","name":"Kota Prabumulih","lon":104.2436833,"id":"0bf11662d2d30bd342eddb93e1dc35b4","lat":-3.4213707},
{"country":"indonesia","code":"1703","province":"Bengkulu","city":"Kab. Bengkulu Utara","query":"\"kabupaten bengkulu utara\" OR \"kab. bengkulu utara\" OR \"bengkulu utara\"","name":"Kab. Bengkulu Utara","lon":101.9804613,"id":"b2d55d599e5b17520787b75a363e23cb","lat":-3.2663246},
{"country":"indonesia","code":"1802","province":"Lampung","city":"Kab. Lampung Tengah","query":"\"kabupaten lampung tengah\" OR \"kab. lampung tengah\" OR \"lampung tengah\"","name":"Kab. Lampung Tengah","lon":105.3131185,"id":"f54b4b85c912b35413ec43401872ff45","lat":-4.8008086},
{"country":"indonesia","code":"1804","province":"Lampung","city":"Kab. Lampung Barat","query":"\"kabupaten lampung barat\" OR \"kab. lampung barat\" OR \"lampung barat\"","name":"Kab. Lampung Barat","lon":104.1466046,"id":"cc3862c509855fdd1fca8507d943f843","lat":-5.1095293},
{"country":"indonesia","code":"1901","province":"Kepulauan Bangka Belitung","city":"Kab. Bangka","query":"\"kabupaten bangka\" OR \"kab. bangka\" OR \"bangka\"","name":"Kab. Bangka","lon":105.92299,"id":"ffc858881add61ec61305454dc212abe","lat":-1.874294},
{"country":"indonesia","code":"3316","province":"Jawa Tengah","city":"Kab. Blora","query":"\"kabupaten blora\" OR \"kab. blora\" OR \"blora\" OR \"kota sate\" OR \"kota barongan\" OR \"kota samin\" OR \"kota kayu jati\"","name":"Kab. Blora","lon":111.3798928,"id":"2c1c90913ddadeb33cae38e6c59212f3","lat":-7.012244},
{"country":"indonesia","code":"3323","province":"Jawa Tengah","city":"Kab. Temanggung","query":"\"kabupaten temanggung\" OR \"kab. temanggung\" OR \"temanggung\" OR \"kota tembakau\"","name":"Kab. Temanggung","lon":110.0891894,"id":"41c58bac235576d64d84cd811bdadbf7","lat":-7.2748721},
{"country":"indonesia","code":"3329","province":"Jawa Tengah","city":"Kab. Brebes","query":"\"kabupaten brebes\" OR \"kab. brebes\" OR \"brebes\" OR \"kota bawang merah\" OR \"kota telor asin\" OR \"bombay van java\"","name":"Kab. Brebes","lon":108.902683,"id":"8808c07d2fb8ba37f79ff22b037edff9","lat":-6.9591793},
{"country":"indonesia","code":"3504","province":"Jawa Timur","city":"Kab. Tulungagung","query":"\"kabupaten tulungagung\" OR \"kab. tulungagung\" OR \"tulungagung\" OR \"kota marmer\"","name":"Kab. Tulungagung","lon":111.9045541,"id":"2d289eed65ef04264082619e523a6ecc","lat":-8.0843211},
{"country":"indonesia","code":"3519","province":"Jawa Timur","city":"Kab. Madiun","query":"\"kabupaten madiun\" OR \"kab. madiun\" OR \"madiun\"","name":"Kab. Madiun","lon":111.6183755,"id":"a46e6845974c8f1c5cdf9b2d375f3fe5","lat":-7.6093306},
{"country":"indonesia","code":"3523","province":"Jawa Timur","city":"Kab. Tuban","query":"\"kabupaten tuban\" OR \"kab. tuban\" OR \"tuban\" OR \"kota tuak\"","name":"Kab. Tuban","lon":112.0416754,"id":"f8aa5f1208a4e8382473d683d1249647","lat":-6.8949099},
{"country":"indonesia","code":"5371","province":"Nusa Tenggara Timur","city":"Kota Kupang","query":"\"kota kupang\" OR \"kupang\"","name":"Kota Kupang","lon":123.6070329,"id":"cdfcd8dde6ecefd63a2546b10893317e","lat":-10.1771997},
{"country":"indonesia","code":"6310","province":"Kalimantan Selatan","city":"Kab. Tanah Bumbu","query":"\"kabupaten tanah bumbu\" OR \"kab. tanah bumbu\" OR \"tanah bumbu\"","name":"Kab. Tanah Bumbu","lon":115.5681084,"id":"6d4f3200f6dc2368d0beacb95f795521","lat":-3.4512244},
{"country":"indonesia","code":"7174","province":"Sulawesi Utara","city":"Kota Kotamobagu","query":"\"kota kotamobagu\" OR \"kotamobagu\"","name":"Kota Kotamobagu","lon":124.3199316,"id":"a6969fcd1b018d920fe71df361201906","lat":0.7243733},
{"country":"indonesia","code":"7202","province":"Sulawesi Tengah","city":"Kab. Poso","query":"\"kabupaten poso\" OR \"kab. poso\" OR \"poso\"","name":"Kab. Poso","lon":120.4357631,"id":"dd084ca94af349b5a44f0a34314ee28f","lat":-1.6468883},
{"country":"indonesia","code":"7211","province":"Sulawesi Tengah","city":"Kab. Banggai Laut","query":"\"kabupaten banggai laut\" OR \"kab. banggai laut\" OR \"banggai laut\"","name":"Kab. Banggai Laut","lon":123.550408,"id":"dbeebce98437c9352007b4b9211b2d76","lat":-1.6735},
{"country":"indonesia","code":"7309","province":"Sulawesi Selatan","city":"Kab. Maros","query":"\"kabupaten maros\" OR \"kab. maros\" OR \"maros\"","name":"Kab. Maros","lon":119.6962677,"id":"829f11d1e4da877ec7d924349efecd51","lat":-5.0549145},
{"country":"indonesia","code":"7326","province":"Sulawesi Selatan","city":"Kab. Toraja Utara","query":"\"kabupaten toraja utara\" OR \"kab. toraja utara\" OR \"toraja utara\"","name":"Kab. Toraja Utara","lon":119.8352303,"id":"b0e0ab1e9b636792b0a3cba92fda621d","lat":-2.8621942},
{"country":"indonesia","code":"7371","province":"Sulawesi Selatan","city":"Kota Makassar","query":"\"kota makassar\" OR \"makassar\"","name":"Kota Makassar","lon":119.4327314,"id":"ca68a03d9352062b7cb92773f7f682a5","lat":-5.1476651},
{"country":"indonesia","code":"7372","province":"Sulawesi Selatan","city":"Kota Parepare","query":"\"kota parepare\" OR \"parepare\"","name":"Kota Parepare","lon":119.6290617,"id":"ab49116368e27af3bf1b44a7723a6077","lat":-4.0096221},
{"country":"indonesia","code":"7404","province":"Sulawesi Tenggara","city":"Kab. Buton","query":"\"kabupaten buton\" OR \"kab. buton\" OR \"buton\"","name":"Kab. Buton","lon":122.9888319,"id":"cc8c19e6426add29454113fae06509d2","lat":-5.3096355},
{"country":"indonesia","code":"8203","province":"Maluku Utara","city":"Kab. Halmahera Utara","query":"\"kabupaten halmahera utara\" OR \"kab. halmahera utara\" OR \"halmahera utara\"","name":"Kab. Halmahera Utara","lon":127.8936663,"id":"dfdf0397be0387dafedcbce92c5c4213","lat":1.5074308},
{"country":"indonesia","code":"9109","province":"Papua","city":"Kab. Mimika","query":"\"kabupaten mimika\" OR \"kab. mimika\" OR \"mimika\"","name":"Kab. Mimika","lon":137.1362125,"id":"178d0e56321a782b4c779ff1f3cfbb6a","lat":-4.4553223},
{"country":"indonesia","code":"9112","province":"Papua","city":"Kab. Pegunungan Bintang","query":"\"kabupaten pegunungan bintang\" OR \"kab. pegunungan bintang\" OR \"pegunungan bintang\"","name":"Kab. Pegunungan Bintang","lon":140.5135589,"id":"3badc535ae6615f11880fb6d8154036f","lat":-4.5589872},
{"country":"indonesia","code":"3307","province":"Jawa Tengah","city":"Kab. Wonosobo","query":"\"kabupaten wonosobo\" OR \"kab. wonosobo\" OR \"wonosobo\" OR \"kota bunga\"","name":"Kab. Wonosobo","lon":109.9001796,"id":"53ca32d334e4632a79a3d8d076b3c8ab","lat":-7.3632094},
{"country":"indonesia","code":"3320","province":"Jawa Tengah","city":"Kab. Jepara","query":"\"kabupaten jepara\" OR \"kab. jepara\" OR \"jepara\" OR \"kota ukir\" OR \"the beauty of java\" OR \"kota durian\" OR \"scheveningen van java\" OR \"kota 1000 ponpes\" OR \"the world carving centre\"","name":"Kab. Jepara","lon":110.6786933,"id":"8cc8d32806a67e80dd0a05fbe821b89f","lat":-6.582711},
{"country":"indonesia","code":"3526","province":"Jawa Timur","city":"Kab. Bangkalan","query":"\"kabupaten bangkalan\" OR \"kab. bangkalan\" OR \"bangkalan\" OR \"kota sapi\"","name":"Kab. Bangkalan","lon":112.9136695,"id":"0014157e486b1e4105ddd2982587e78b","lat":-7.038375},
{"country":"indonesia","code":"3575","province":"Jawa Timur","city":"Kota Pasuruan","query":"\"kota pasuruan\" OR \"pasuruan\"","name":"Kota Pasuruan","lon":112.8999225,"id":"3cfa8e1cee134c7b4b3344809785f6d7","lat":-7.6469193},
{"country":"indonesia","code":"3601","province":"Banten","city":"Kab. Pandeglang","query":"\"kabupaten pandeglang\" OR \"kab. pandeglang\" OR \"pandeglang\" OR \"kota badak\" OR \"the sunset of java\" OR \"Kota Berkah\"","name":"Kab. Pandeglang","lon":105.6881788,"id":"5586b6b2983d43db0e6e2be50e4a8550","lat":-6.7482706},
{"country":"indonesia","code":"5108","province":"Bali","city":"Kab. Buleleng","query":"\"kabupaten buleleng\" OR \"kab. buleleng\" OR \"buleleng\"","name":"Kab. Buleleng","lon":114.9516869,"id":"041ed392bacd02382baaabf637f2f5da","lat":-8.2238968},
{"country":"indonesia","code":"5203","province":"Nusa Tenggara Barat","city":"Kab. Lombok Timur","query":"\"kabupaten lombok timur\" OR \"kab. lombok timur\" OR \"lombok timur\"","name":"Kab. Lombok Timur","lon":116.5609857,"id":"b5670d2444d4d52171369cec2fdbadf3","lat":-8.5134471},
{"country":"indonesia","code":"5303","province":"Nusa Tenggara Timur","city":"Kab. Timor Tengah Utara","query":"\"kabupaten timor tengah utara\" OR \"kab. timor tengah utara\" OR \"timor tengah utara\"","name":"Kab. Timor Tengah Utara","lon":124.597132,"id":"96964d00910a61c2aab06ac613e90c7b","lat":-9.4522647},
{"country":"indonesia","code":"9202","province":"Papua Barat","city":"Kab. Manokwari","query":"\"kabupaten manokwari\" OR \"kab. manokwari\" OR \"manokwari\"","name":"Kab. Manokwari","lon":134.0620421,"id":"be926f5c5cab2a428f3bfdb0fd0aff26","lat":-0.8614531},
{"country":"indonesia","code":"6209","province":"Kalimantan Tengah","city":"Kab. Lamandau","query":"\"kabupaten lamandau\" OR \"kab. lamandau\" OR \"lamandau\"","name":"Kab. Lamandau","lon":111.2845025,"id":"aba301ca5ab34eb1014b2bcc97261e84","lat":-1.8526377},
{"country":"indonesia","code":"6211","province":"Kalimantan Tengah","city":"Kab. Pulang Pisau","query":"\"kabupaten pulang pisau\" OR \"kab. pulang pisau\" OR \"pulang pisau\"","name":"Kab. Pulang Pisau","lon":113.9536466,"id":"57babe6c74912a82ab1ed9e544514bd7","lat":-2.6849607},
{"country":"indonesia","code":"6301","province":"Kalimantan Selatan","city":"Kab. Tanah Laut","query":"\"kabupaten tanah laut\" OR \"kab. tanah laut\" OR \"tanah laut\"","name":"Kab. Tanah Laut","lon":114.8092691,"id":"5e3b494a1d5a8386144684d929372f22","lat":-3.7694047},
{"country":"indonesia","code":"6311","province":"Kalimantan Selatan","city":"Kab. Balangan","query":"\"kabupaten balangan\" OR \"kab. balangan\" OR \"balangan\"","name":"Kab. Balangan","lon":115.6154732,"id":"75ff041a4a14ac1d3b8fdf2a3942088d","lat":-2.3260425},
{"country":"indonesia","code":"6407","province":"Kalimantan Timur","city":"Kab. Kutai Barat","query":"\"kabupaten kutai barat\" OR \"kab. kutai barat\" OR \"kutai barat\"","name":"Kab. Kutai Barat","lon":115.8521764,"id":"1e72f67ff5b151015fe4683e1ab08999","lat":-0.4051796},
{"country":"indonesia","code":"7209","province":"Sulawesi Tengah","city":"Kab. Tojo Una-Una","query":"\"kabupaten tojo una-una\" OR \"kab. tojo una-una\" OR \"tojo una-una\"","name":"Kab. Tojo Una-Una","lon":121.5370003,"id":"62cf7ae0e2a4cd5efb1beafe8d766b5d","lat":-1.098757},
{"country":"indonesia","code":"7373","province":"Sulawesi Selatan","city":"Kota Palopo","query":"\"kota palopo\" OR \"palopo\"","name":"Kota Palopo","lon":120.2022239,"id":"7fb43820f291ceeea60ec47a255d9385","lat":-3.0108458},
{"country":"indonesia","code":"9119","province":"Papua","city":"Kab. Supiori","query":"\"kabupaten supiori\" OR \"kab. supiori\" OR \"supiori\"","name":"Kab. Supiori","lon":135.6385125,"id":"ff69ec5edf4b78ca2688b871c3725c35","lat":-0.7295099},
{"country":"indonesia","code":"9121","province":"Papua","city":"Kab. Mamberamo Tengah","query":"\"kabupaten mamberamo tengah\" OR \"kab. mamberamo tengah\" OR \"mamberamo tengah\"","name":"Kab. Mamberamo Tengah","lon":138.9605972,"id":"311f065cb6e5153a5a829a311b6e6467","lat":-3.6321083},
{"country":"indonesia","code":"1409","province":"Riau","city":"Kab. Kuantan Singingi","query":"\"kabupaten kuantan singingi\" OR \"kab. kuantan singingi\" OR \"kuantan singingi\"","name":"Kab. Kuantan Singingi","lon":101.5248055,"id":"369f194b0e2270428a244f858aa3057f","lat":-0.4411596},
{"country":"indonesia","code":"1472","province":"Riau","city":"Kota Dumai","query":"\"kota dumai\" OR \"dumai\" OR \"kota pelabuhan\"","name":"Kota Dumai","lon":101.4001855,"id":"42bd5a367ca4acd0f291da520e36482c","lat":1.6666349},
{"country":"indonesia","code":"1508","province":"Jambi","city":"Kab. Bungo","query":"\"kabupaten bungo\" OR \"kab. bungo\" OR \"bungo\"","name":"Kab. Bungo","lon":101.8891721,"id":"905c409db664de53c1667b5a65462233","lat":-1.6401338},
{"country":"indonesia","code":"1707","province":"Bengkulu","city":"Kab. Lebong","query":"\"kabupaten lebong\" OR \"kab. lebong\" OR \"lebong\"","name":"Kab. Lebong","lon":102.2090224,"id":"e1890b056bb74f49d437b9b737506477","lat":-3.1455094},
{"country":"indonesia","code":"3208","province":"Jawa Barat","city":"Kab. Kuningan","query":"\"kabupaten kuningan\" OR \"kab. kuningan\" OR \"kuningan\" OR \"kota kuda\"","name":"Kab. Kuningan","lon":108.5700636,"id":"ed89898f4de306ffde7d8c048de66920","lat":-7.0138053},
{"country":"indonesia","code":"3211","province":"Jawa Barat","city":"Kab. Sumedang","query":"\"kabupaten sumedang\" OR \"kab. sumedang\" OR \"sumedang\" OR \"kota tahu\"","name":"Kab. Sumedang","lon":110.0330554,"id":"6953fb15782f2f9314bb14f27ceff9cc","lat":0.6095949},
{"country":"indonesia","code":"3313","province":"Jawa Tengah","city":"Kab. Karanganyar","query":"\"kabupaten karanganyar\" OR \"kab. karanganyar\" OR \"karanganyar\"","name":"Kab. Karanganyar","lon":111.0460407,"id":"c15aeb16dee2bf058e60f65c4bd3e420","lat":-7.6387228},
{"country":"indonesia","code":"3372","province":"Jawa Tengah","city":"Kota Surakarta","query":"\"kota surakarta\" OR \"surakarta\" OR \"kota solo\" OR \"kota kebudayaan\" OR \"kota batik\" OR \"kota liwet\" OR \"the spirit of java\"","name":"Kota Surakarta","lon":110.8243272,"id":"4933f3e2c3821a093dc6dc716cd61ef5","lat":-7.5754887},
{"country":"indonesia","code":"1505","province":"Jambi","city":"Kab. Muaro Jambi","query":"\"kabupaten muaro jambi\" OR \"kab. muaro jambi\" OR \"muaro jambi\"","name":"Kab. Muaro Jambi","lon":103.6131203,"id":"4c82889dd4064287b09ccdc0b6afa2b9","lat":-1.6101229},
{"country":"indonesia","code":"3503","province":"Jawa Timur","city":"Kab. Trenggalek","query":"\"kabupaten trenggalek\" OR \"kab. trenggalek\" OR \"trenggalek\"","name":"Kab. Trenggalek","lon":111.6183755,"id":"133dfb8453ab3bfd38e1444f8984600b","lat":-8.1824112},
{"country":"indonesia","code":"1701","province":"Bengkulu","city":"Kab. Bengkulu Selatan","query":"\"kabupaten bengkulu selatan\" OR \"kab. bengkulu selatan\" OR \"bengkulu selatan\"","name":"Kab. Bengkulu Selatan","lon":103.035694,"id":"b904cd6da94e6b16f5042c639cbe2863","lat":-4.3248409},
{"country":"indonesia","code":"3508","province":"Jawa Timur","city":"Kab. Lumajang","query":"\"kabupaten lumajang\" OR \"kab. lumajang\" OR \"lumajang\"","name":"Kab. Lumajang","lon":113.224557,"id":"cea1cbdd83decfb1dde0cc20bb5194cf","lat":-8.1327683},
{"country":"indonesia","code":"1708","province":"Bengkulu","city":"Kab. Kepahiang","query":"\"kabupaten kepahiang\" OR \"kab. kepahiang\" OR \"kepahiang\"","name":"Kab. Kepahiang","lon":102.5642261,"id":"2717b14496781cec272fc73682ab5feb","lat":-3.6441941},
{"country":"indonesia","code":"3510","province":"Jawa Timur","city":"Kab. Banyuwangi","query":"\"kabupaten banyuwangi\" OR \"kab. banyuwangi\" OR \"banyuwangi\" OR \"kota pisang\" OR \"the sunrise of java\" OR \"the sunrise of east java\" OR \"kota banteng\"","name":"Kab. Banyuwangi","lon":114.3691416,"id":"fe840f45d305bba961e785d8409c342e","lat":-8.2190944},
{"country":"indonesia","code":"2103","province":"Kepulauan Riau","city":"Kab. Natuna","query":"\"kabupaten natuna\" OR \"kab. natuna\" OR \"natuna\"","name":"Kab. Natuna","lon":108.1428669,"id":"1d97e49261758c4de04cfb7ff2bed42c","lat":3.9456514},
{"country":"indonesia","code":"3529","province":"Jawa Timur","city":"Kab. Sumenep","query":"\"kabupaten sumenep\" OR \"kab. sumenep\" OR \"sumenep\" OR \"kota garam\"","name":"Kab. Sumenep","lon":113.9060624,"id":"45912e877eaba40a74eb51309f2dad96","lat":-6.9253999},
{"country":"indonesia","code":"3322","province":"Jawa Tengah","city":"Kab. Semarang","query":"\"kabupaten semarang\" OR \"kab. semarang\" OR \"semarang\"","name":"Kab. Semarang","lon":110.4738762,"id":"37e40affab682ec8d82737d298307554","lat":-7.1764785},
{"country":"indonesia","code":"5106","province":"Bali","city":"Kab. Bangli","query":"\"kabupaten bangli\" OR \"kab. bangli\" OR \"bangli\"","name":"Kab. Bangli","lon":115.3548713,"id":"463b59e0b8dda213f4a610761460db6a","lat":-8.2975884},
{"country":"indonesia","code":"3376","province":"Jawa Tengah","city":"Kota Tegal","query":"\"kota tegal\" OR \"tegal\" OR \"kota bahari\"","name":"Kota Tegal","lon":109.1255917,"id":"2143dcf0f3c26451a969d85031aa2f5f","lat":-6.8797041},
{"country":"indonesia","code":"6102","province":"Kalimantan Barat","city":"Kab. Mempawah","query":"\"kabupaten mempawah\" OR \"kab. mempawah\" OR \"mempawah\"","name":"Kab. Mempawah","lon":109.140438,"id":"dae228f603be3f847a2e4a41f45298b2","lat":0.3897139},
{"country":"indonesia","code":"5318","province":"Nusa Tenggara Timur","city":"Kab. Sumba Barat Daya","query":"\"kabupaten sumba barat daya\" OR \"kab. sumba barat daya\" OR \"sumba barat daya\"","name":"Kab. Sumba Barat Daya","lon":119.1390642,"id":"a4632bfebadb2f8130a6dbf2c7481893","lat":-9.539139},
{"country":"indonesia","code":"6108","province":"Kalimantan Barat","city":"Kab. Landak","query":"\"kabupaten landak\" OR \"kab. landak\" OR \"landak\"","name":"Kab. Landak","lon":109.7591675,"id":"41c329acfa63e0bc38c860dcbc96d4f5","lat":0.4237287},
{"country":"indonesia","code":"6107","province":"Kalimantan Barat","city":"Kab. Bengkayang","query":"\"kabupaten bengkayang\" OR \"kab. bengkayang\" OR \"bengkayang\"","name":"Kab. Bengkayang","lon":109.6639309,"id":"11fa94feff4d461d91ef1e6adc0d4850","lat":1.06911},
{"country":"indonesia","code":"6303","province":"Kalimantan Selatan","city":"Kab. Banjar","query":"\"kabupaten banjar\" OR \"kab. banjar\" OR \"banjar\"","name":"Kab. Banjar","lon":114.9991464,"id":"bf664472e120bd0ebe7658dd4ffc9076","lat":-3.3200228},
{"country":"indonesia","code":"6109","province":"Kalimantan Barat","city":"Kab. Sekadau","query":"\"kabupaten sekadau\" OR \"kab. sekadau\" OR \"sekadau\"","name":"Kab. Sekadau","lon":110.9983515,"id":"8e9c583ea8d3ebd6b6a948ddbc383af6","lat":-0.0697175},
{"country":"indonesia","code":"7102","province":"Sulawesi Utara","city":"Kab. Minahasa","query":"\"kabupaten minahasa\" OR \"kab. minahasa\" OR \"minahasa\"","name":"Kab. Minahasa","lon":124.8182593,"id":"ba8729b93ea7f4f6b1b42503f1c15136","lat":1.2168837},
{"country":"indonesia","code":"7101","province":"Sulawesi Utara","city":"Kab. Bolaang Mongondow","query":"\"kabupaten bolaang mongondow\" OR \"kab. bolaang mongondow\" OR \"bolaang mongondow\"","name":"Kab. Bolaang Mongondow","lon":123.7547441,"id":"64cdb583b36ff41acde29a6f447dff23","lat":0.7217876},
{"country":"indonesia","code":"7103","province":"Sulawesi Utara","city":"Kab. Kepulauan Sangihe","query":"\"kabupaten kepulauan sangihe\" OR \"kab. kepulauan sangihe\" OR \"kepulauan sangihe\"","name":"Kab. Kepulauan Sangihe","lon":125.5438967,"id":"ef717f52bc95cced6daa3b430b89e487","lat":3.5303212},
{"country":"indonesia","code":"7315","province":"Sulawesi Selatan","city":"Kab. Pinrang","query":"\"kabupaten pinrang\" OR \"kab. pinrang\" OR \"pinrang\"","name":"Kab. Pinrang","lon":119.5571677,"id":"a0925c29035aefd3e6db9e096ac0f308","lat":-3.6483486},
{"country":"indonesia","code":"7205","province":"Sulawesi Tengah","city":"Kab. Buol","query":"\"kabupaten buol\" OR \"kab. buol\" OR \"buol\"","name":"Kab. Buol","lon":121.3541631,"id":"d2497ebef1bdcd793aac347b5d85e198","lat":0.9695452},
{"country":"indonesia","code":"7402","province":"Sulawesi Tenggara","city":"Kab. Konawe","query":"\"kabupaten konawe\" OR \"kab. konawe\" OR \"konawe\"","name":"Kab. Konawe","lon":122.0837445,"id":"5008e67e979c3e5de748120d2f4eda41","lat":-3.9380432},
{"country":"indonesia","code":"7322","province":"Sulawesi Selatan","city":"Kab. Luwu Utara","query":"\"kabupaten luwu utara\" OR \"kab. luwu utara\" OR \"luwu utara\"","name":"Kab. Luwu Utara","lon":119.9740534,"id":"cbd2a4a94fb044971d63f7ae727232b9","lat":-2.2690446},
{"country":"indonesia","code":"7410","province":"Sulawesi Tenggara","city":"Kab. Buton Utara","query":"\"kabupaten buton utara\" OR \"kab. buton utara\" OR \"buton utara\"","name":"Kab. Buton Utara","lon":123.0338767,"id":"cbf13ffeedd5d79c1b2c4571f2494a51","lat":-4.7023424},
{"country":"indonesia","code":"9101","province":"Papua","city":"Kab. Merauke","query":"\"kabupaten merauke\" OR \"kab. merauke\" OR \"merauke\"","name":"Kab. Merauke","lon":139.041312,"id":"cc7419f94877b3d0335df1f2ae29398a","lat":-7.7838334},
{"country":"indonesia","code":"8104","province":"Maluku","city":"Kab. Buru","query":"\"kabupaten buru\" OR \"kab. buru\" OR \"buru\"","name":"Kab. Buru","lon":126.6957216,"id":"8a2a7bfd9e5518915e3bd5f7cadfef54","lat":-3.3307379},
{"country":"indonesia","code":"9111","province":"Papua","city":"Kab. Keerom","query":"\"kabupaten keerom\" OR \"kab. keerom\" OR \"keerom\"","name":"Kab. Keerom","lon":140.7624493,"id":"2c553b1a3e1ef3dc2412a1a41d8df1ab","lat":-3.3449536},
{"country":"indonesia","code":"9116","province":"Papua","city":"Kab. Boven Digoel","query":"\"kabupaten boven digoel\" OR \"kab. boven digoel\" OR \"boven digoel\"","name":"Kab. Boven Digoel","lon":140.3481835,"id":"659eb148f395f7e0ac6390db37aab532","lat":-5.7400018},
{"country":"indonesia","code":"3303","province":"Jawa Tengah","city":"Kab. Purbalingga","query":"\"kabupaten purbalingga\" OR \"kab. purbalingga\" OR \"purbalingga\"","name":"Kab. Purbalingga","lon":109.4259114,"id":"430b192ac3aa6db29c2d7808fec12836","lat":-7.3058578},
{"country":"indonesia","code":"3312","province":"Jawa Tengah","city":"Kab. Wonogiri","query":"\"kabupaten wonogiri\" OR \"kab. wonogiri\" OR \"wonogiri\" OR \"kota gaplek\"","name":"Kab. Wonogiri","lon":111.0460407,"id":"32b1ca8efc73559cc3e75efbc2bceeac","lat":-7.8846484},
{"country":"indonesia","code":"3328","province":"Jawa Tengah","city":"Kab. Tegal","query":"\"kabupaten tegal\" OR \"kab. tegal\" OR \"tegal\"","name":"Kab. Tegal","lon":109.140438,"id":"d3eed7a5d14e848fd0198724125d3cc7","lat":-6.9902371},
{"country":"indonesia","code":"3573","province":"Jawa Timur","city":"Kota Malang","query":"\"kota malang\" OR \"malang\" OR \"kota pendidikan\" OR \"kota pariwisata\" OR \"kota pelajar\" OR \"kota bunga\"","name":"Kota Malang","lon":112.6326321,"id":"bae322caa8e5ac00ce6403d00fd448e8","lat":-7.9666204},
{"country":"indonesia","code":"5320","province":"Nusa Tenggara Timur","city":"Kab. Sabu Raijua","query":"\"kabupaten sabu raijua\" OR \"kab. sabu raijua\" OR \"sabu raijua\"","name":"Kab. Sabu Raijua","lon":121.8334868,"id":"8d706573429b71d5e7610a32ba2b6946","lat":-10.5541116},
{"country":"indonesia","code":"9206","province":"Papua Barat","city":"Kab. Teluk Bintuni","query":"\"kabupaten teluk bintuni\" OR \"kab. teluk bintuni\" OR \"teluk bintuni\"","name":"Kab. Teluk Bintuni","lon":133.329466,"id":"31fe00fe2f7d8be192db69583f39ce11","lat":-1.9056848},
{"country":"indonesia","code":"9212","province":"Papua Barat","city":"Kab. Pegunungan Arfak","query":"\"kabupaten pegunungan arfak\" OR \"kab. pegunungan arfak\" OR \"pegunungan arfak\"","name":"Kab. Pegunungan Arfak","lon":133.8338889,"id":"ddd6ecc53d3e8489370bd072b1fe6673","lat":-0.9533333},
{"country":"indonesia","code":"6210","province":"Kalimantan Tengah","city":"Kab. Gunung Mas","query":"\"kabupaten gunung mas\" OR \"kab. gunung mas\" OR \"gunung mas\"","name":"Kab. Gunung Mas","lon":113.5728501,"id":"d5f4a2be55ce18d6b41f883fe690909c","lat":-1.2522464},
{"country":"indonesia","code":"6302","province":"Kalimantan Selatan","city":"Kab. Kotabaru","query":"\"kota kotabaru\" OR \"kotabaru\"","name":"Kab. Kotabaru","lon":107.4913489,"id":"9cd3b53fb8221644fb52ed23981a540b","lat":-6.3889127},
{"country":"indonesia","code":"6307","province":"Kalimantan Selatan","city":"Kab. Hulu Sungai Tengah","query":"\"kabupaten hulu sungai tengah\" OR \"kab. hulu sungai tengah\" OR \"hulu sungai tengah\"","name":"Kab. Hulu Sungai Tengah","lon":115.5207358,"id":"3883f2a8b90f5eefa27105e4971cdf7c","lat":-2.6153162},
{"country":"indonesia","code":"6371","province":"Kalimantan Selatan","city":"Kota Banjarmasin","query":"\"kota banjarmasin\" OR \"banjarmasin\"","name":"Kota Banjarmasin","lon":114.5943784,"id":"69c3f620c7a9b6761b330b35ad9cefda","lat":-3.3186067},
{"country":"indonesia","code":"7172","province":"Sulawesi Utara","city":"Kota Bitung","query":"\"kota bitung\" OR \"bitung\"","name":"Kota Bitung","lon":125.1216524,"id":"51ed03a2bcadca7e9d56bdeb68a5c771","lat":1.4403744},
{"country":"indonesia","code":"7303","province":"Sulawesi Selatan","city":"Kab. Bantaeng","query":"\"kabupaten bantaeng\" OR \"kab. bantaeng\" OR \"bantaeng\"","name":"Kab. Bantaeng","lon":120.0202964,"id":"6b34988e59083de39fa2c790f3896dfb","lat":-5.5169316},
{"country":"indonesia","code":"7502","province":"Gorontalo","city":"Kab. Boalemo","query":"\"kabupaten boalemo\" OR \"kab. boalemo\" OR \"boalemo\"","name":"Kab. Boalemo","lon":122.2653887,"id":"fa80e7c0e6c6fbb6efa8c273ad862f94","lat":0.7013419},
{"country":"indonesia","code":"1507","province":"Jambi","city":"Kab. Tanjung Jabung Timur","query":"\"kabupaten tanjung jabung timur\" OR \"kab. tanjung jabung timur\" OR \"tanjung jabung timur\"","name":"Kab. Tanjung Jabung Timur","lon":103.8216261,"id":"33dd202ccc401fe239599ebf3aa80f77","lat":-1.1024367},
{"country":"indonesia","code":"1608","province":"Sumatera Selatan","city":"Kab. Ogan Komering Ulu Timur","query":"\"kabupaten ogan komering ulu timur\" OR \"kab. ogan komering ulu timur\" OR \"ogan komering ulu timur\"","name":"Kab. Ogan Komering Ulu Timur","lon":104.7520939,"id":"e2afdd124b46ccd16c467a42085962b0","lat":-3.8567934},
{"country":"indonesia","code":"1611","province":"Sumatera Selatan","city":"Kab. Empat Lawang","query":"\"kabupaten empat lawang\" OR \"kab. empat lawang\" OR \"empat lawang\"","name":"Kab. Empat Lawang","lon":102.8975098,"id":"39ece521a9af6e37863e8500bdd9446e","lat":-3.7286029},
{"country":"indonesia","code":"1613","province":"Sumatera Selatan","city":"Kab. Musi Rawas Utara","query":"\"kabupaten musi rawas utara\" OR \"kab. musi rawas utara\" OR \"musi rawas utara\"","name":"Kab. Musi Rawas Utara","lon":102.7135,"id":"6a7f47d9349b25317ce049ba37609128","lat":-2.7878},
{"country":"indonesia","code":"1709","province":"Bengkulu","city":"Kab. Bengkulu Tengah","query":"\"kabupaten bengkulu tengah\" OR \"kab. bengkulu tengah\" OR \"bengkulu tengah\"","name":"Kab. Bengkulu Tengah","lon":102.3922135,"id":"229ac70c9390db9897b4f984e0623974","lat":-3.6962324},
{"country":"indonesia","code":"1810","province":"Lampung","city":"Kab. Pringsewu","query":"\"kabupaten pringsewu\" OR \"kab. pringsewu\" OR \"pringsewu\"","name":"Kab. Pringsewu","lon":104.9856176,"id":"1141a50f3941487c56a430f61765360e","lat":-5.3331186},
{"country":"indonesia","code":"3175","province":"DKI Jakarta","city":"Kota Jakarta Timur","query":"\"kota jakarta timur\" OR \"jakarta timur\" OR \"jaktim\" OR \"east jakarta\"","name":"Kota Jakarta Timur","lon":106.9004472,"id":"66a64c991aee2a30041cdaface9be2b8","lat":-6.2250138},
{"country":"indonesia","code":"3310","province":"Jawa Tengah","city":"Kab. Klaten","query":"\"kabupaten klaten\" OR \"kab. klaten\" OR \"klaten\" OR \"kota berseri\"","name":"Kab. Klaten","lon":110.6645683,"id":"6964986e2f3e720dbfdd5ceb498d3cdd","lat":-7.739967},
{"country":"indonesia","code":"3374","province":"Jawa Tengah","city":"Kota Semarang","query":"\"kota semarang\" OR \"semarang\" OR \"kota lumpia\" OR \"the port of java\" OR \"kota jamu\" OR \"venice van java\"","name":"Kota Semarang","lon":110.4381254,"id":"5aef61f7f45a99881300e11922b7d12d","lat":-7.0051453},
{"country":"indonesia","code":"3506","province":"Jawa Timur","city":"Kab. Kediri","query":"\"kabupaten kediri\" OR \"kab. kediri\" OR \"kediri\"","name":"Kab. Kediri","lon":112.1907122,"id":"3a464eee7b3349cd075eb9c993cf7f38","lat":-7.8232397},
{"country":"indonesia","code":"3507","province":"Jawa Timur","city":"Kab. Malang","query":"\"kabupaten malang\" OR \"kab. malang\" OR \"malang\"","name":"Kab. Malang","lon":112.7152125,"id":"d320280565433e10a8cab35bcee381de","lat":-8.242209},
{"country":"indonesia","code":"3511","province":"Jawa Timur","city":"Kab. Bondowoso","query":"\"kabupaten bondowoso\" OR \"kab. bondowoso\" OR \"bondowoso\" OR \"kota tape\"","name":"Kab. Bondowoso","lon":113.9060624,"id":"ff859ee3c0351065fd367f82b6d658b8","lat":-7.9673906},
{"country":"indonesia","code":"3517","province":"Jawa Timur","city":"Kab. Jombang","query":"\"kabupaten jombang\" OR \"kab. jombang\" OR \"jombang\" OR \"kota santri\" OR \"kota beriman\" OR \"the city of tolerance\" OR \"heart of east java\"","name":"Kab. Jombang","lon":112.28609,"id":"ab4113c1a3aeaa0880be7fc4234949d7","lat":-7.5740867},
{"country":"indonesia","code":"3579","province":"Jawa Timur","city":"Kota Batu","query":"\"kota batu\" OR \"batu\" OR \"kota apel\"","name":"Kota Batu","lon":112.5334492,"id":"c0c4af5a398c4c261907a5c4cdc61a52","lat":-7.8830648},
{"country":"indonesia","code":"3672","province":"Banten","city":"Kota Cilegon","query":"\"kota cilegon\" OR \"cilegon\" OR \"kota baja\"","name":"Kota Cilegon","lon":106.0111203,"id":"c82c2f6e890ca71f8bd8127cf823630a","lat":-6.0025343},
{"country":"indonesia","code":"5301","province":"Nusa Tenggara Timur","city":"Kab. Kupang","query":"\"kabupaten kupang\" OR \"kab. kupang\" OR \"kupang\"","name":"Kab. Kupang","lon":123.8857747,"id":"3b4deafe86f12d11ea6a948748e0cc32","lat":-9.9906166},
{"country":"indonesia","code":"5306","province":"Nusa Tenggara Timur","city":"Kab. Flores Timur","query":"\"kabupaten flores timur\" OR \"kab. flores timur\" OR \"flores timur\"","name":"Kab. Flores Timur","lon":122.9663018,"id":"58a351b6618a7436c020136f2bd11b48","lat":-8.3130942},
{"country":"indonesia","code":"9207","province":"Papua Barat","city":"Kab. Teluk Wondama","query":"\"kabupaten teluk wondama\" OR \"kab. teluk wondama\" OR \"teluk wondama\"","name":"Kab. Teluk Wondama","lon":134.3236557,"id":"ab52ebaee0180cce0e741262622c9825","lat":-2.8551699},
{"country":"indonesia","code":"9208","province":"Papua Barat","city":"Kab. Kaimana","query":"\"kabupaten kaimana\" OR \"kab. kaimana\" OR \"kaimana\"","name":"Kab. Kaimana","lon":133.9436788,"id":"966accb271c35ed4c4848c2a307189f6","lat":-3.288406},
{"country":"indonesia","code":"9209","province":"Papua Barat","city":"Kab. Tambrauw","query":"\"kabupaten tambrauw\" OR \"kab. tambrauw\" OR \"tambrauw\"","name":"Kab. Tambrauw","lon":132.3938375,"id":"30a79fd0c1c0b85734254ccd5e46ac3f","lat":-0.781856},
{"country":"indonesia","code":"6201","province":"Kalimantan Tengah","city":"Kab. Kotawaringin Barat","query":"\"kota kotawaringin barat\" OR \"kotawaringin barat\"","name":"Kab. Kotawaringin Barat","lon":111.7614661,"id":"821410017fa73883f74519d5f276854b","lat":-2.5063419},
{"country":"indonesia","code":"6208","province":"Kalimantan Tengah","city":"Kab. Sukamara","query":"\"kabupaten sukamara\" OR \"kab. sukamara\" OR \"sukamara\"","name":"Kab. Sukamara","lon":111.2368084,"id":"6b685029eb57b8d23167c160fad4cd9d","lat":-2.6267517},
{"country":"indonesia","code":"6402","province":"Kalimantan Timur","city":"Kab. Kutai Kartanegara","query":"\"kabupaten kutai kartanegara\" OR \"kab. kutai kartanegara\" OR \"kutai kartanegara\"","name":"Kab. Kutai Kartanegara","lon":116.6081653,"id":"7b47d644c774a3b621bacaa78508a445","lat":-0.1336655},
{"country":"indonesia","code":"7318","province":"Sulawesi Selatan","city":"Kab. Tana Toraja","query":"\"kabupaten tana toraja\" OR \"kab. tana toraja\" OR \"tana toraja\"","name":"Kab. Tana Toraja","lon":119.742604,"id":"8cfa71299c2e4ba3c5739b9e71e91278","lat":-3.0753003},
{"country":"indonesia","code":"7403","province":"Sulawesi Tenggara","city":"Kab. Muna","query":"\"kabupaten muna\" OR \"kab. muna\" OR \"muna\"","name":"Kab. Muna","lon":122.6277455,"id":"e20a92cc39f8792ca5aad27dc5fab107","lat":-4.901629},
{"country":"indonesia","code":"7472","province":"Sulawesi Tenggara","city":"Kota Bau-Bau","query":"\"kota bau-bau\" OR \"bau-bau\"","name":"Kota Bau-Bau","lon":122.5976841,"id":"1bb7c1748dc3db8f48f90af3668be42e","lat":-5.4700112},
{"country":"indonesia","code":"7505","province":"Gorontalo","city":"Kab. Gorontalo Utara","query":"\"kabupaten gorontalo utara\" OR \"kab. gorontalo utara\" OR \"gorontalo utara\"","name":"Kab. Gorontalo Utara","lon":122.4920088,"id":"deede88a90269530146000d3075dc511","lat":0.9252647},
{"country":"indonesia","code":"8103","province":"Maluku","city":"Kab. Maluku Tenggara Barat","query":"\"kabupaten maluku tenggara barat\" OR \"kab. maluku tenggara barat\" OR \"maluku tenggara barat\"","name":"Kab. Maluku Tenggara Barat","lon":131.3611121,"id":"c233c5d080a4f1307d32921f73ca04b7","lat":-7.5322642},
{"country":"indonesia","code":"8204","province":"Maluku Utara","city":"Kab. Halmahera Selatan","query":"\"kabupaten halmahera selatan\" OR \"kab. halmahera selatan\" OR \"halmahera selatan\"","name":"Kab. Halmahera Selatan","lon":127.7237678,"id":"cc65e703a6a3d4388d1289e2aac83e71","lat":-1.5109015},
{"country":"indonesia","code":"9118","province":"Papua","city":"Kab. Asmat","query":"\"kabupaten asmat\" OR \"kab. asmat\" OR \"asmat\"","name":"Kab. Asmat","lon":138.3988186,"id":"f8938de916b4428469e100a4fa94af22","lat":-5.0573958},
{"country":"indonesia","code":"81","province":"Maluku","query":"\"prov. maluku\" OR \"maluku\"","name":"Maluku","lon":130.1452734,"id":"505c95fee37603d535211ea20d0f9cb0","lat":-3.2384616},
{"country":"indonesia","code":"82","province":"Maluku Utara","query":"\"prov. maluku utara\" OR \"maluku utara\"","name":"Maluku Utara","lon":127.8087693,"id":"7bc4990af50413ad9f0666d4df3ab4c4","lat":1.5709993},
{"country":"indonesia","code":"1374","province":"Sumatera Barat","city":"Kota Padang Panjang","query":"\"kota padang panjang\" OR \"padang panjang\"","name":"Kota Padang Panjang","lon":100.3992289,"id":"05692294d102bdc8ee85de83d37760bb","lat":-0.4652798},
{"country":"indonesia","code":"1410","province":"Riau","city":"Kab. Kepulauan Meranti","query":"\"kabupaten kepulauan meranti\" OR \"kab. kepulauan meranti\" OR \"kepulauan meranti\"","name":"Kab. Kepulauan Meranti","lon":102.6675575,"id":"7a82c14af52379f569fc631bf3a03aef","lat":0.9208765},
{"country":"indonesia","code":"1503","province":"Jambi","city":"Kab. Sarolangun","query":"\"kabupaten sarolangun\" OR \"kab. sarolangun\" OR \"sarolangun\"","name":"Kab. Sarolangun","lon":102.7135121,"id":"c63a6be247515d161ba21067370b8ad5","lat":-2.3230422},
{"country":"indonesia","code":"1571","province":"Jambi","city":"Kota Jambi","query":"\"kota jambi\" OR \"jambi\"","name":"Kota Jambi","lon":103.6131203,"id":"8555e25cdd9997749a39a76b94c287f0","lat":-1.6101229},
{"country":"indonesia","code":"1606","province":"Sumatera Selatan","city":"Kab. Musi Banyuasin","query":"\"kabupaten musi banyuasin\" OR \"kab. musi banyuasin\" OR \"musi banyuasin\"","name":"Kab. Musi Banyuasin","lon":103.7289167,"id":"f258dcbb9107e54632ca07c459093e06","lat":-2.5442029},
{"country":"indonesia","code":"1704","province":"Bengkulu","city":"Kab. Kaur","query":"\"kabupaten kaur\" OR \"kab. kaur\" OR \"kaur\"","name":"Kab. Kaur","lon":103.2663479,"id":"4dc689964d38a55ac2d0b8a7c4134649","lat":-4.5215978},
{"country":"indonesia","code":"1803","province":"Lampung","city":"Kab. Lampung Utara","query":"\"kabupaten lampung utara\" OR \"kab. lampung utara\" OR \"lampung utara\"","name":"Kab. Lampung Utara","lon":104.7520939,"id":"3ab3072e8139211e32c28488ccf4ad4d","lat":-4.8133905},
{"country":"indonesia","code":"2105","province":"Kepulauan Riau","city":"Kab. Kepulauan Anambas","query":"\"kabupaten kepulauan anambas\" OR \"kab. kepulauan anambas\" OR \"kepulauan anambas\"","name":"Kab. Kepulauan Anambas","lon":105.7585908,"id":"c7ddc07c0c63cdbefca8cedbd1e014f0","lat":2.923624},
{"country":"indonesia","code":"3308","province":"Jawa Tengah","city":"Kab. Magelang","query":"\"kabupaten magelang\" OR \"kab. magelang\" OR \"magelang\"","name":"Kab. Magelang","lon":110.2832217,"id":"03744fbf2077984fa6d0e8b51bb6713b","lat":-7.4305237},
{"country":"indonesia","code":"3317","province":"Jawa Tengah","city":"Kab. Rembang","query":"\"kabupaten rembang\" OR \"kab. rembang\" OR \"rembang\" OR \"kota bangkit\"","name":"Kab. Rembang","lon":111.4275888,"id":"a358461ba82712bcb853fa5dcc7ea415","lat":-6.8082115},
{"country":"indonesia","code":"3471","province":"DI Yogyakarta","city":"Kota Yogyakarta","query":"\"kota yogyakarta\" OR \"yogyakarta\" OR \"jogja\" OR \"jogjakarta\" OR \"kota gudeg\" OR \"kota pelajar\" OR \"kota seni dan budaya\" OR \"kota istimewa\" OR \"kota republik\" OR \"kota buku\"","name":"Kota Yogyakarta","lon":110.3694896,"id":"05757a112c93f0dc13fd60270654ef94","lat":-7.7955798},
{"country":"indonesia","code":"3502","province":"Jawa Timur","city":"Kab. Ponorogo","query":"\"kabupaten ponorogo\" OR \"kab. ponorogo\" OR \"ponorogo\" OR \"kota reog\"","name":"Kab. Ponorogo","lon":111.4696322,"id":"cdf1f7492d4512b18a88e5c9ae3d4091","lat":-7.8650759},
{"country":"indonesia","code":"3516","province":"Jawa Timur","city":"Kab. Mojokerto","query":"\"kabupaten mojokerto\" OR \"kab. mojokerto\" OR \"mojokerto\"","name":"Kab. Mojokerto","lon":112.4768287,"id":"2a5631a75aa013ed148c978effdc5817","lat":-7.563831},
{"country":"indonesia","code":"3521","province":"Jawa Timur","city":"Kab. Ngawi","query":"\"kabupaten ngawi\" OR \"kab. ngawi\" OR \"ngawi\" OR \"kota ramah\" OR \"kota benteng\"","name":"Kab. Ngawi","lon":111.3321974,"id":"cd80988d4f23127144dfbd4d527c7672","lat":-7.460987},
{"country":"indonesia","code":"5101","province":"Bali","city":"Kab. Jembrana","query":"\"kabupaten jembrana\" OR \"kab. jembrana\" OR \"jembrana\"","name":"Kab. Jembrana","lon":114.6667939,"id":"174813b928e7185e4f7151a6fdf9e143","lat":-8.3233438},
{"country":"indonesia","code":"5107","province":"Bali","city":"Kab. Karangasem","query":"\"kabupaten karangasem\" OR \"kab. karangasem\" OR \"karangasem\"","name":"Kab. Karangasem","lon":115.5207358,"id":"38ba43662c666f799d6c7130dc25f9a3","lat":-8.3465933},
{"country":"indonesia","code":"5204","province":"Nusa Tenggara Barat","city":"Kab. Sumbawa","query":"\"kabupaten sumbawa\" OR \"kab. sumbawa\" OR \"sumbawa\"","name":"Kab. Sumbawa","lon":117.3616476,"id":"0f93619278eefbb46c8c587b00092008","lat":-8.6529334},
{"country":"indonesia","code":"6110","province":"Kalimantan Barat","city":"Kab. Melawi","query":"\"kabupaten melawi\" OR \"kab. melawi\" OR \"melawi\"","name":"Kab. Melawi","lon":111.6660725,"id":"4fb31daa6046be88088a5344fade59d0","lat":-0.7000681},
{"country":"indonesia","code":"6401","province":"Kalimantan Timur","city":"Kab. Paser","query":"\"kabupaten paser\" OR \"kab. paser\" OR \"paser\"","name":"Kab. Paser","lon":115.9467997,"id":"4ddea856b253a2f951dc00a84d2f4721","lat":-1.7175266},
{"country":"indonesia","code":"6403","province":"Kalimantan Timur","city":"Kab. Berau","query":"\"kabupaten berau\" OR \"kab. berau\" OR \"berau\"","name":"Kab. Berau","lon":117.3616476,"id":"df546b4432288a58349db94f73973520","lat":2.0450883},
{"country":"indonesia","code":"6474","province":"Kalimantan Timur","city":"Kota Bontang","query":"\"kota bontang\" OR \"bontang\"","name":"Kota Bontang","lon":117.4800445,"id":"01e8ae18213763209359999c51889ddc","lat":0.120863},
{"country":"indonesia","code":"6503","province":"Kalimantan Utara","city":"Kab. Nunukan","query":"\"kabupaten nunukan\" OR \"kab. nunukan\" OR \"nunukan\"","name":"Kab. Nunukan","lon":117.666952,"id":"545095d566e71c12edee4f82bb07d777","lat":4.0609227},
{"country":"indonesia","code":"7212","province":"Sulawesi Tengah","city":"Kab. Morowali Utara","query":"\"kabupaten morowali utara\" OR \"kab. morowali utara\" OR \"morowali utara\"","name":"Kab. Morowali Utara","lon":121.3542,"id":"beffc62105ba566dc5cdf4902e630ea7","lat":-1.6312},
{"country":"indonesia","code":"7310","province":"Sulawesi Selatan","city":"Kab. Pangkajene Kepulauan","query":"\"kabupaten pangkajene kepulauan\" OR \"kab. pangkajene kepulauan\" OR \"pangkajene kepulauan\"","name":"Kab. Pangkajene Kepulauan","lon":119.5571677,"id":"dce4339165fb2bb65df0994ee04c918e","lat":-4.805035},
{"country":"indonesia","code":"7601","province":"Sulawesi Barat","city":"Kab. Mamuju Utara","query":"\"kabupaten mamuju utara\" OR \"kab. mamuju utara\" OR \"mamuju utara\"","name":"Kab. Mamuju Utara","lon":119.5107708,"id":"2a886fff4c2c9d913f6b36cddfa7f2c6","lat":-1.5264542},
{"country":"indonesia","code":"8109","province":"Maluku","city":"Kab. Buru Selatan","query":"\"kabupaten buru selatan\" OR \"kab. buru selatan\" OR \"buru selatan\"","name":"Kab. Buru Selatan","lon":126.6957216,"id":"8de5e29dfc4c83980ce7f67c41cddeec","lat":-3.7273972},
{"country":"indonesia","code":"9102","province":"Papua","city":"Kab. Jayawijaya","query":"\"kabupaten jayawijaya\" OR \"kab. jayawijaya\" OR \"jayawijaya\"","name":"Kab. Jayawijaya","lon":138.7995122,"id":"1fd2d6bee91d7e034291d9d08760ab22","lat":-4.0004481},
{"country":"indonesia","code":"9120","province":"Papua","city":"Kab. Mamberamo Raya","query":"\"kabupaten mamberamo raya\" OR \"kab. mamberamo raya\" OR \"mamberamo raya\"","name":"Kab. Mamberamo Raya","lon":137.7637565,"id":"11057da6be57220f38ca56a1e6a8ba78","lat":-2.5331255},
{"country":"indonesia","code":"3401","province":"DI Yogyakarta","city":"Kab. Kulon Progo","query":"\"kabupaten kulon progo\" OR \"kab. kulon progo\" OR \"kulon progo\" OR \"kota manoreh\" OR \"kota west prog\"","name":"Kab. Kulon Progo","lon":110.1640846,"id":"aa2474b5b2882a95ac57b5c1b79b8762","lat":-7.8266798},
{"country":"indonesia","code":"3402","province":"DI Yogyakarta","city":"Kab. Bantul","query":"\"kabupaten bantul\" OR \"kab. bantul\" OR \"bantul\" OR \"kota geplak\" OR \"kota seniman\"","name":"Kab. Bantul","lon":110.3785438,"id":"e4a581cc1d9849fcde7deebb0c6b12d1","lat":-7.9190169},
{"country":"indonesia","code":"3509","province":"Jawa Timur","city":"Kab. Jember","query":"\"kabupaten jember\" OR \"kab. jember\" OR \"jember\" OR \"kota suwar suwir\"","name":"Kab. Jember","lon":113.6680747,"id":"c5382d0247d5d59dd401998680096706","lat":-8.1844859},
{"country":"indonesia","code":"3518","province":"Jawa Timur","city":"Kab. Nganjuk","query":"\"kabupaten nganjuk\" OR \"kab. nganjuk\" OR \"nganjuk\" OR \"kota angin\" OR \"kota bayu\"","name":"Kab. Nganjuk","lon":111.9045541,"id":"56b9932bb2288e5fd3ed4529bec17f99","lat":-7.5943507},
{"country":"indonesia","code":"3674","province":"Banten","city":"Kota Tangerang Selatan","query":"\"kota tangerang selatan\" OR \"tangerang selatan\" OR \"tangsel\" OR \"kota anggrek\"","name":"Kota Tangerang Selatan","lon":106.7112933,"id":"41b86d21c095d1df3e0c3d080054269b","lat":-6.2835218},
{"country":"indonesia","code":"6111","province":"Kalimantan Barat","city":"Kab. Kayong Utara","query":"\"kabupaten kayong utara\" OR \"kab. kayong utara\" OR \"kayong utara\"","name":"Kab. Kayong Utara","lon":110.0449662,"id":"44de1568f6fe8a55bda298bb0ce79f08","lat":-0.9225877},
{"country":"indonesia","code":"9204","province":"Papua Barat","city":"Kab. Sorong Selatan","query":"\"kabupaten sorong selatan\" OR \"kab. sorong selatan\" OR \"sorong selatan\"","name":"Kab. Sorong Selatan","lon":132.1572702,"id":"5643fe8978cba64bddcc746472b9f814","lat":-1.7657744},
{"country":"indonesia","code":"9205","province":"Papua Barat","city":"Kab. Raja Ampat","query":"\"kabupaten raja ampat\" OR \"kab. raja ampat\" OR \"raja ampat\"","name":"Kab. Raja Ampat","lon":130.8778586,"id":"ae46a450295d2e2183855c845e4a5b9a","lat":-1.0915151},
{"country":"indonesia","code":"6203","province":"Kalimantan Tengah","city":"Kab. Kapuas","query":"\"kabupaten kapuas\" OR \"kab. kapuas\" OR \"kapuas\"","name":"Kab. Kapuas","lon":114.3341432,"id":"6a61ffcd297ae249a924bf2cf7a8abf6","lat":-1.8116445},
{"country":"indonesia","code":"6206","province":"Kalimantan Tengah","city":"Kab. Katingan","query":"\"kabupaten katingan\" OR \"kab. katingan\" OR \"katingan\"","name":"Kab. Katingan","lon":112.8105512,"id":"45deb1c27ab1255e8cff393a9109762f","lat":-0.9758379},
{"country":"indonesia","code":"6305","province":"Kalimantan Selatan","city":"Kab. Tapin","query":"\"kabupaten tapin\" OR \"kab. tapin\" OR \"tapin\"","name":"Kab. Tapin","lon":115.0465991,"id":"233adab9d7077145f3af8536cbbf5132","lat":-2.9160746},
{"country":"indonesia","code":"7201","province":"Sulawesi Tengah","city":"Kab. Banggai","query":"\"kabupaten banggai\" OR \"kab. banggai\" OR \"banggai\"","name":"Kab. Banggai","lon":122.6277455,"id":"1e72f9cbebd6f0815d36c21adf9731b4","lat":-0.956178},
{"country":"indonesia","code":"8202","province":"Maluku Utara","city":"Kab. Halmahera Tengah","query":"\"kabupaten halmahera tengah\" OR \"kab. halmahera tengah\" OR \"halmahera tengah\"","name":"Kab. Halmahera Tengah","lon":128.3587174,"id":"0ca19cc77a91ae1872a7745cca567137","lat":0.4419543},
{"country":"indonesia","code":"9125","province":"Papua","city":"Kab. Puncak","query":"\"kabupaten puncak\" OR \"kab. puncak\" OR \"puncak\"","name":"Kab. Puncak","lon":106.9990215,"id":"f91bacfc45698dbe08371d61c609f13d","lat":-6.7028188},
{"country":"indonesia","code":"1372","province":"Sumatera Barat","city":"Kota Solok","query":"\"kota solok\" OR \"solok\"","name":"Kota Solok","lon":100.6549823,"id":"6ace344c643a35a4ac26ce3578cff245","lat":-0.7885335},
{"country":"indonesia","code":"1407","province":"Riau","city":"Kab. Rokan Hilir","query":"\"kabupaten rokan hilir\" OR \"kab. rokan hilir\" OR \"rokan hilir\"","name":"Kab. Rokan Hilir","lon":100.8000051,"id":"936fe37a5f79d1334ca4b46a81477052","lat":1.6463978},
{"country":"indonesia","code":"1502","province":"Jambi","city":"Kab. Merangin","query":"\"kabupaten merangin\" OR \"kab. merangin\" OR \"merangin\"","name":"Kab. Merangin","lon":101.9804613,"id":"8c17bb8e0c3910a758ab87b9d8461798","lat":-2.1752789},
{"country":"indonesia","code":"2102","province":"Kepulauan Riau","city":"Kab. Karimun","query":"\"kabupaten karimun\" OR \"kab. karimun\" OR \"karimun\"","name":"Kab. Karimun","lon":103.4049445,"id":"6033ee6b31749f0f6dbfdbbc5daaa17e","lat":0.7697665},
{"country":"indonesia","code":"2172","province":"Kepulauan Riau","city":"Kota Tanjung Pinang","query":"\"kota tanjung pinang\" OR \"tanjung pinang\" OR tanjungpinang OR \"kota gurindam\"","name":"Kota Tanjung Pinang","lon":104.4839765,"id":"6c0ee99214985e4e05c8ef317ed5a36a","lat":0.9046081},
{"country":"indonesia","code":"3306","province":"Jawa Tengah","city":"Kab. Purworejo","query":"\"kabupaten purworejo\" OR \"kab. purworejo\" OR \"purworejo\"","name":"Kab. Purworejo","lon":109.9989416,"id":"fbc1553e1dba56d178c633d1e07b9c71","lat":-7.6964509},
{"country":"indonesia","code":"3325","province":"Jawa Tengah","city":"Kab. Batang","query":"\"kabupaten batang\" OR \"kab. batang\" OR \"batang\"","name":"Kab. Batang","lon":109.9020509,"id":"3ee4194acf044bb384246e0ac9760d9a","lat":-7.0392183},
{"country":"indonesia","code":"3602","province":"Banten","city":"Kab. Lebak","query":"\"kabupaten lebak\" OR \"kab. lebak\" OR \"lebak\"","name":"Kab. Lebak","lon":106.2522143,"id":"8f7f21fb0a22d55e0f83743688a28663","lat":-6.5643956},
{"country":"indonesia","code":"5104","province":"Bali","city":"Kab. Gianyar","query":"\"kabupaten gianyar\" OR \"kab. gianyar\" OR \"gianyar\"","name":"Kab. Gianyar","lon":115.2600506,"id":"951db6926231f27746d13bcf8f58e63c","lat":-8.4248244},
{"country":"indonesia","code":"5206","province":"Nusa Tenggara Barat","city":"Kab. Bima","query":"\"kabupaten bima\" OR \"kab. bima\" OR \"bima\"","name":"Kab. Bima","lon":118.626479,"id":"a9d052abd0b55e1c02bf8d9181f0fe26","lat":-8.4353962},
{"country":"indonesia","code":"5208","province":"Nusa Tenggara Barat","city":"Kab. Lombok Utara","query":"\"kabupaten lombok utara\" OR \"kab. lombok utara\" OR \"lombok utara\"","name":"Kab. Lombok Utara","lon":116.2777073,"id":"c7dcb3cc49dfd98354106cd401b29281","lat":-8.3739076},
{"country":"indonesia","code":"6271","province":"Kalimantan Tengah","city":"Kota Palangka Raya","query":"\"kota palangka raya\" OR \"palangka raya\"","name":"Kota Palangka Raya","lon":113.913977,"id":"39dfb6671f120dab5d5c4f5b9be2ac3a","lat":-2.2161048},
{"country":"indonesia","code":"6308","province":"Kalimantan Selatan","city":"Kab. Hulu Sungai Utara","query":"\"kabupaten hulu sungai utara\" OR \"kab. hulu sungai utara\" OR \"hulu sungai utara\"","name":"Kab. Hulu Sungai Utara","lon":115.188916,"id":"981374ed33c738f4c2b08039a10b1fee","lat":-2.4421225},
{"country":"indonesia","code":"7107","province":"Sulawesi Utara","city":"Kab. Minahasa Tenggara","query":"\"kabupaten minahasa tenggara\" OR \"kab. minahasa tenggara\" OR \"minahasa tenggara\"","name":"Kab. Minahasa Tenggara","lon":124.7298765,"id":"892abc9a4c8cf1faefa25eb1f2a8ed10","lat":1.0278551},
{"country":"indonesia","code":"7109","province":"Sulawesi Utara","city":"Kab. Kep. Siau Tagulandang Biaro","query":"\"kabupaten kep. siau tagulandang biaro\" OR \"kab. kep. siau tagulandang biaro\" OR \"kep. siau tagulandang biaro\"","name":"Kab. Kep. Siau Tagulandang Biaro","lon":125.3697998,"id":"73b7b0dc1a1a131be22681d3c3edb8e8","lat":2.3355358},
{"country":"indonesia","code":"7204","province":"Sulawesi Tengah","city":"Kab. Toli-Toli","query":"\"kabupaten toli-toli\" OR \"kab. toli-toli\" OR \"toli-toli\"","name":"Kab. Toli-Toli","lon":120.7579834,"id":"1d8c98471762103db61a997c13a4eb56","lat":0.8768231},
{"country":"indonesia","code":"7207","province":"Sulawesi Tengah","city":"Kab. Banggai Kepulauan","query":"\"kabupaten banggai kepulauan\" OR \"kab. banggai kepulauan\" OR \"banggai kepulauan\"","name":"Kab. Banggai Kepulauan","lon":123.0338767,"id":"e25797157935777db76809e7a5e3fffe","lat":-1.3075939},
{"country":"indonesia","code":"7308","province":"Sulawesi Selatan","city":"Kab. Bone","query":"\"kabupaten bone\" OR \"kab. bone\" OR \"bone\"","name":"Kab. Bone","lon":120.0665236,"id":"74e6c8b392255275d188b1b54e53695f","lat":-4.7443383},
{"country":"indonesia","code":"7311","province":"Sulawesi Selatan","city":"Kab. Barru","query":"\"kabupaten barru\" OR \"kab. barru\" OR \"barru\"","name":"Kab. Barru","lon":119.6499162,"id":"9275e196563d48b747067c01b6f6c3cb","lat":-4.436417},
{"country":"indonesia","code":"7503","province":"Gorontalo","city":"Kab. Bone Bolango","query":"\"kabupaten bone bolango\" OR \"kab. bone bolango\" OR \"bone bolango\"","name":"Kab. Bone Bolango","lon":123.3486147,"id":"2fbbb7038ee1b47b7221e695bfe27ada","lat":0.5657885},
{"country":"indonesia","code":"8107","province":"Maluku","city":"Kab. Kepulauan Aru","query":"\"kabupaten kepulauan aru\" OR \"kab. kepulauan aru\" OR \"kepulauan aru\"","name":"Kab. Kepulauan Aru","lon":134.5501935,"id":"15e4d0c23185a3222159895a9db05cd4","lat":-6.1946502},
{"country":"indonesia","code":"8108","province":"Maluku","city":"Kab. Maluku Barat Daya","query":"\"kabupaten maluku barat daya\" OR \"kab. maluku barat daya\" OR \"maluku barat daya\"","name":"Kab. Maluku Barat Daya","lon":126.3498097,"id":"1896f36e40a4dadac9689d3032c68856","lat":-7.7851588},
{"country":"indonesia","code":"8201","province":"Maluku Utara","city":"Kab. Halmahera Barat","query":"\"kabupaten halmahera barat\" OR \"kab. halmahera barat\" OR \"halmahera barat\"","name":"Kab. Halmahera Barat","lon":127.5960704,"id":"e74afa0e2a2cfb98c50699db985532e1","lat":1.3589663},
{"country":"indonesia","code":"8272","province":"Maluku Utara","city":"Kota Tidore Kepulauan","query":"\"kota tidore kepulauan\" OR \"tidore kepulauan\"","name":"Kota Tidore Kepulauan","lon":127.681228,"id":"c2c429efca046871a49c73d55d0ee704","lat":0.5060207},
{"country":"indonesia","code":"9106","province":"Papua","city":"Kab. Biak Numfor","query":"\"kabupaten biak numfor\" OR \"kab. biak numfor\" OR \"biak numfor\"","name":"Kab. Biak Numfor","lon":135.9800848,"id":"e59cdf9523f1b03c2f7dcb3f866ef4c8","lat":-1.0381022},
{"country":"indonesia","code":"9114","province":"Papua","city":"Kab. Tolikara","query":"\"kabupaten tolikara\" OR \"kab. tolikara\" OR \"tolikara\"","name":"Kab. Tolikara","lon":138.4787258,"id":"ce15538470bf6a27f80b5f0e33e1ebec","lat":-3.481132},
{"country":"indonesia","code":"9124","province":"Papua","city":"Kab. Nduga","query":"\"kabupaten nduga\" OR \"kab. nduga\" OR \"nduga\"","name":"Kab. Nduga","lon":138.2393528,"id":"da166da199a1808f4a4f03b24f64fdf5","lat":-4.4069496},
{"country":"indonesia","code":"1501","province":"Jambi","city":"Kab. Kerinci","query":"\"kabupaten kerinci\" OR \"kab. kerinci\" OR \"kerinci\"","name":"Kab. Kerinci","lon":101.4339148,"id":"01adf9f8e2e82ecaeb572e1ce10bd204","lat":-1.8720467},
{"country":"indonesia","code":"1604","province":"Sumatera Selatan","city":"Kab. Lahat","query":"\"kabupaten lahat\" OR \"kab. lahat\" OR \"lahat\"","name":"Kab. Lahat","lon":103.3587288,"id":"da1abc2388959bc4c54699e25dbc4e08","lat":-3.8008893},
{"country":"indonesia","code":"1612","province":"Sumatera Selatan","city":"Kab. Penukal Abab Lematang Ilir","query":"\"kabupaten penukal abab lematang ilir\" OR \"kab. penukal abab lematang ilir\" OR \"penukal abab lematang ilir\"","name":"Kab. Penukal Abab Lematang Ilir","lon":104.0072,"id":"6454a22da78ac13e91a9355f3b9ba505","lat":-3.2398},
{"country":"indonesia","code":"1807","province":"Lampung","city":"Kab. Lampung Timur","query":"\"kabupaten lampung timur\" OR \"kab. lampung timur\" OR \"lampung timur\"","name":"Kab. Lampung Timur","lon":105.6881788,"id":"fc9771a4aa830676fa6c5732e5808179","lat":-5.1134995},
{"country":"indonesia","code":"3171","province":"DKI Jakarta","city":"Kota Jakarta Pusat","query":"\"kota jakarta pusat\" OR \"jakarta pusat\" OR \"jakpus\" OR \"central jakarta\"","name":"Kota Jakarta Pusat","lon":106.8340911,"id":"05a7f1b3d086a710dcd9f2186c31e92d","lat":-6.1864864},
{"country":"indonesia","code":"3202","province":"Jawa Barat","city":"Kab. Sukabumi","query":"\"kabupaten sukabumi\" OR \"kab. sukabumi\" OR \"sukabumi\"","name":"Kab. Sukabumi","lon":106.6291304,"id":"b24099289f025bb6d339b9679febafb5","lat":-7.2134052},
{"country":"indonesia","code":"3204","province":"Jawa Barat","city":"Kab. Bandung","query":"\"kabupaten bandung\" OR \"kab. bandung\" OR \"bandung\"","name":"Kab. Bandung","lon":107.6215321,"id":"3d3bbc06d6514255629526033528d34d","lat":-7.1340702},
{"country":"indonesia","code":"3276","province":"Jawa Barat","city":"Kota Depok","query":"\"kota depok\" OR \"depok\" OR \"kota petir\" OR \"kota belimbing\"","name":"Kota Depok","lon":106.7942405,"id":"e260478a551af287e9a5e7e9502f8fd6","lat":-6.4024844},
{"country":"indonesia","code":"3301","province":"Jawa Tengah","city":"Kab. Cilacap","query":"\"kabupaten cilacap\" OR \"kab. cilacap\" OR \"cilacap\" OR \"kota industri\" OR \"kota sukun\" OR \"kota 1000 PLTU\" OR \"kota minapolitan\"","name":"Kab. Cilacap","lon":108.902683,"id":"2cba13945183d7729a3534334f328a64","lat":-7.6178096},
{"country":"indonesia","code":"3321","province":"Jawa Tengah","city":"Kab. Demak","query":"\"kabupaten demak\" OR \"kab. demak\" OR \"demak\" OR \"kota wali\" OR \"kota jambu\"","name":"Kab. Demak","lon":110.6645683,"id":"65f5b99b492c2cb0e9024d9898495215","lat":-6.9238879},
{"country":"indonesia","code":"3326","province":"Jawa Tengah","city":"Kab. Pekalongan","query":"\"kabupaten pekalongan\" OR \"kab. pekalongan\" OR \"pekalongan\"","name":"Kab. Pekalongan","lon":109.6163185,"id":"a11cd5ea3d246d5a12f29eaca5c9e6d4","lat":-7.0517128},
{"country":"indonesia","code":"3403","province":"DI Yogyakarta","city":"Kab. Gunung Kidul","query":"\"kabupaten gunung kidul\" OR \"kab. gunung kidul\" OR \"gunung kidul\" OR \"kota seribu sungai bawah tanah\" OR \"kota pantai dan goa\" OR \"kota tandus\"","name":"Kab. Gunung Kidul","lon":110.6168921,"id":"9f35945c2736336337dd2d3482afab2c","lat":-8.0305091},
{"country":"indonesia","code":"3404","province":"DI Yogyakarta","city":"Kab. Sleman","query":"\"kabupaten sleman\" OR \"kab. sleman\" OR \"sleman\" OR \"kota mbah marijan\" OR \"kota salak pondoh\"","name":"Kab. Sleman","lon":110.402376,"id":"74746cb8af661f16c6cf759571c438d9","lat":-7.7325213},
{"country":"indonesia","code":"3528","province":"Jawa Timur","city":"Kab. Pamekasan","query":"\"kabupaten pamekasan\" OR \"kab. pamekasan\" OR \"pamekasan\"","name":"Kab. Pamekasan","lon":113.5252319,"id":"66eb8ee5acfef6329a2b1b69d7fd744e","lat":-7.1050857},
{"country":"indonesia","code":"3671","province":"Banten","city":"Kota Tangerang","query":"\"kota tangerang\" OR \"tangerang\" OR \"kota 1000 industri\"","name":"Kota Tangerang","lon":106.6527099,"id":"4b3703896deba53b07f7335f3334b235","lat":-6.2023936},
{"country":"indonesia","code":"5202","province":"Nusa Tenggara Barat","city":"Kab. Lombok Tengah","query":"\"kabupaten lombok tengah\" OR \"kab. lombok tengah\" OR \"lombok tengah\"","name":"Kab. Lombok Tengah","lon":116.2777073,"id":"85b21e4a4df15660d9a1c57ef3841159","lat":-8.694623},
{"country":"indonesia","code":"5272","province":"Nusa Tenggara Barat","city":"Kota Bima","query":"\"kota bima\" OR \"bima\"","name":"Kota Bima","lon":118.7449028,"id":"45798b16a105651ac902345c66c98ef8","lat":-8.4642661},
{"country":"indonesia","code":"5304","province":"Nusa Tenggara Timur","city":"Kab. Belu","query":"\"kabupaten belu\" OR \"kab. belu\" OR \"belu\"","name":"Kab. Belu","lon":124.906551,"id":"393f8ba6d03394bd3e2eb0f4b5c6a6e8","lat":-9.1538978},
{"country":"indonesia","code":"5319","province":"Nusa Tenggara Timur","city":"Kab. Manggarai Timur","query":"\"kabupaten manggarai timur\" OR \"kab. manggarai timur\" OR \"manggarai timur\"","name":"Kab. Manggarai Timur","lon":120.6199895,"id":"986c63684f004d286af130ad2142cdcb","lat":-8.6206712},
{"country":"indonesia","code":"6101","province":"Kalimantan Barat","city":"Kab. Sambas","query":"\"kabupaten sambas\" OR \"kab. sambas\" OR \"sambas\"","name":"Kab. Sambas","lon":109.2831531,"id":"0f11dd996e26b5b9200d829154ca8bcd","lat":1.3625191},
{"country":"indonesia","code":"6103","province":"Kalimantan Barat","city":"Kab. Sanggau","query":"\"kabupaten sanggau\" OR \"kab. sanggau\" OR \"sanggau\"","name":"Kab. Sanggau","lon":110.5215459,"id":"3bac1f3595053ddcce475d913b2f387e","lat":0.1400117},
{"country":"indonesia","code":"6105","province":"Kalimantan Barat","city":"Kab. Sintang","query":"\"kabupaten sintang\" OR \"kab. sintang\" OR \"sintang\"","name":"Kab. Sintang","lon":112.8105512,"id":"b5ebf98d65d7d820526fe56082e9141c","lat":-0.1378068},
{"country":"indonesia","code":"9203","province":"Papua Barat","city":"Kab. Fakfak","query":"\"kabupaten fakfak\" OR \"kab. fakfak\" OR \"fakfak\"","name":"Kab. Fakfak","lon":133.0194897,"id":"bf07b5f9817a4dac1829c029ecccf031","lat":-3.097706},
{"country":"indonesia","code":"6204","province":"Kalimantan Tengah","city":"Kab. Barito Selatan","query":"\"kabupaten barito selatan\" OR \"kab. barito selatan\" OR \"barito selatan\"","name":"Kab. Barito Selatan","lon":114.8092691,"id":"39a95cd53bed30087d50474e795f1491","lat":-1.875943},
{"country":"indonesia","code":"6205","province":"Kalimantan Tengah","city":"Kab. Barito Utara","query":"\"kabupaten barito utara\" OR \"kab. barito utara\" OR \"barito utara\"","name":"Kab. Barito Utara","lon":115.094045,"id":"495d25cc66fae0530b2b373e58976bbd","lat":-0.9587136},
{"country":"indonesia","code":"6372","province":"Kalimantan Selatan","city":"Kota Banjarbaru","query":"\"kota banjarbaru\" OR \"banjarbaru\"","name":"Kota Banjarbaru","lon":114.8103181,"id":"eed969592994ee0e8b2d159d351bccd6","lat":-3.4572422},
{"country":"indonesia","code":"6411","province":"Kalimantan Timur","city":"Kab. Mahakam Ulu","query":"\"kabupaten mahakam ulu\" OR \"kab. mahakam ulu\" OR \"mahakam ulu\"","name":"Kab. Mahakam Ulu","lon":114.714292,"id":"37eeb03ad81c09f2699b80358973fea1","lat":0.961668},
{"country":"indonesia","code":"7110","province":"Sulawesi Utara","city":"Kab. Bolaang Mongondow Timur","query":"\"kabupaten bolaang mongondow timur\" OR \"kab. bolaang mongondow timur\" OR \"bolaang mongondow timur\"","name":"Kab. Bolaang Mongondow Timur","lon":124.4641848,"id":"1caff3d57d0dc06998d597b2db7059fd","lat":0.7152651},
{"country":"indonesia","code":"7314","province":"Sulawesi Selatan","city":"Kab. Sidenreng Rappang","query":"\"kabupaten sidenreng rappang\" OR \"kab. sidenreng rappang\" OR \"sidenreng rappang\"","name":"Kab. Sidenreng Rappang","lon":119.820297,"id":"71c6f999a0d80f95334e7d5e5a8880cb","lat":-3.844541},
{"country":"indonesia","code":"7324","province":"Sulawesi Selatan","city":"Kab. Luwu Timur","query":"\"kabupaten luwu timur\" OR \"kab. luwu timur\" OR \"luwu timur\"","name":"Kab. Luwu Timur","lon":121.1710389,"id":"a4b390e577f1db9b6f835b6fa54f611c","lat":-2.5825518},
{"country":"indonesia","code":"7501","province":"Gorontalo","city":"Kab. Gorontalo","query":"\"kabupaten gorontalo\" OR \"kab. gorontalo\" OR \"gorontalo\"","name":"Kab. Gorontalo","lon":122.4467238,"id":"0ae7085789fb41a909f94191675de0df","lat":0.6999372},
{"country":"indonesia","code":"9123","province":"Papua","city":"Kab. Lanny Jaya","query":"\"kabupaten lanny jaya\" OR \"kab. lanny jaya\" OR \"lanny jaya\"","name":"Kab. Lanny Jaya","lon":138.3190276,"id":"45f9058f37c718fca5aa9ba934f93ff3","lat":-3.971033},
{"country":"indonesia","code":"1375","province":"Sumatera Barat","city":"Kota Bukittinggi","query":"\"kota bukittinggi\" OR \"bukittinggi\" OR \"Kota Tri Arga\" OR \"Kota Jam Gadang\" OR \"Kota Bung Hatta\"","name":"Kota Bukittinggi","lon":100.383479,"id":"19d5e7e845692d388bebfec2d1b0e4dd","lat":-0.3039178},
{"country":"indonesia","code":"1672","province":"Sumatera Selatan","city":"Kota Pagar Alam","query":"\"kota pagar alam\" OR \"pagar alam\"","name":"Kota Pagar Alam","lon":103.2278845,"id":"1b29829c7c531f2a8faa5c825c0e6aaa","lat":-4.0419617},
{"country":"indonesia","code":"1673","province":"Sumatera Selatan","city":"Kota Lubuk Linggau","query":"\"kota lubuk linggau\" OR \"lubuk linggau\"","name":"Kota Lubuk Linggau","lon":102.857236,"id":"adb9603d642faa167e618db518e84bf5","lat":-3.2995858},
{"country":"indonesia","code":"1702","province":"Bengkulu","city":"Kab. Rejang Lebong","query":"\"kabupaten rejang lebong\" OR \"kab. rejang lebong\" OR \"rejang lebong\"","name":"Kab. Rejang Lebong","lon":102.6675575,"id":"ff62c485a75834be50ce001921b69bf9","lat":-3.4548154},
{"country":"indonesia","code":"1706","province":"Bengkulu","city":"Kab. Muko Muko","query":"\"kabupaten muko muko\" OR \"kab. muko muko\" OR \"muko muko\"","name":"Kab. Muko Muko","lon":101.4339148,"id":"8a18b0470984c3decdd74b313caa8e6f","lat":-2.6449114},
{"country":"indonesia","code":"1801","province":"Lampung","city":"Kab. Lampung Selatan","query":"\"kabupaten lampung selatan\" OR \"kab. lampung selatan\" OR \"lampung selatan\"","name":"Kab. Lampung Selatan","lon":105.5474373,"id":"347f8e73ec259dd0529eee6ae80075a4","lat":-5.5622614},
{"country":"indonesia","code":"1805","province":"Lampung","city":"Kab. Tulang Bawang","query":"\"kabupaten tulang bawang\" OR \"kab. tulang bawang\" OR \"tulang bawang\"","name":"Kab. Tulang Bawang","lon":110.2850104,"id":"d5ed0d0fd8b0ff37060b5598883866b0","lat":-7.086562},
{"country":"indonesia","code":"3174","province":"DKI Jakarta","city":"Kota Jakarta Selatan","query":"\"kota jakarta selatan\" OR \"jakarta selatan\" OR \"jaksel\" OR \"south jakarta\"","name":"Kota Jakarta Selatan","lon":106.8060388,"id":"4859d8dd6af6d3e8d9270fd7674a4efa","lat":-6.2689913},
{"country":"indonesia","code":"3210","province":"Jawa Barat","city":"Kab. Majalengka","query":"\"kabupaten majalengka\" OR \"kab. majalengka\" OR \"majalengka\" OR \"kota angin\"","name":"Kab. Majalengka","lon":108.2852049,"id":"1f7d827466121c03b061d999346bcb86","lat":-6.7790605},
{"country":"indonesia","code":"3213","province":"Jawa Barat","city":"Kab. Subang","query":"\"kabupaten subang\" OR \"kab. subang\" OR \"subang\" OR \"kota nanas\"","name":"Kab. Subang","lon":107.763621,"id":"71df6ee4d59b5da5ac999d413bdaaf37","lat":-6.3487617},
{"country":"indonesia","code":"3277","province":"Jawa Barat","city":"Kota Cimahi","query":"\"kota cimahi\" OR \"cimahi\"","name":"Kota Cimahi","lon":107.5413039,"id":"be46834d81473ca52c77f507f2d87729","lat":-6.8840816},
{"country":"indonesia","code":"3302","province":"Jawa Tengah","city":"Kab. Banyumas","query":"\"kabupaten banyumas\" OR \"kab. banyumas\" OR \"banyumas\"","name":"Kab. Banyumas","lon":109.140438,"id":"ada3de1363c51e9cf5d3017a06c9d0df","lat":-7.4832133},
{"country":"indonesia","code":"3305","province":"Jawa Tengah","city":"Kab. Kebumen","query":"\"kabupaten kebumen\" OR \"kab. kebumen\" OR \"kebumen\" OR \"kota lawet\" OR \"kota walet\"","name":"Kab. Kebumen","lon":109.6524575,"id":"e3e71ccc2af715aa8d82814cf0fe45cd","lat":-7.6680559},
{"country":"indonesia","code":"3327","province":"Jawa Tengah","city":"Kab. Pemalang","query":"\"kabupaten pemalang\" OR \"kab. pemalang\" OR \"pemalang\" OR \"kota grombyang\"","name":"Kab. Pemalang","lon":109.4259114,"id":"ad95cffb2ce95eea207f9201003b68e3","lat":-7.0599422},
{"country":"indonesia","code":"3527","province":"Jawa Timur","city":"Kab. Sampang","query":"\"kabupaten sampang\" OR \"kab. sampang\" OR \"sampang\"","name":"Kab. Sampang","lon":113.2394452,"id":"6e64a8de6a734628b7e760775c6b7e28","lat":-7.0402326},
{"country":"indonesia","code":"5102","province":"Bali","city":"Kab. Tabanan","query":"\"kabupaten tabanan\" OR \"kab. tabanan\" OR \"tabanan\"","name":"Kab. Tabanan","lon":115.0465991,"id":"29cb862a1a4a9aea99647814fb5d8e07","lat":-8.4595561},
{"country":"indonesia","code":"5103","province":"Bali","city":"Kab. Badung","query":"\"kabupaten badung\" OR \"kab. badung\" OR \"badung\"","name":"Kab. Badung","lon":115.1770586,"id":"fe57e200699b24374f73af9f0ce6e52a","lat":-8.5819296},
{"country":"indonesia","code":"5311","province":"Nusa Tenggara Timur","city":"Kab. Sumba Timur","query":"\"kabupaten sumba timur\" OR \"kab. sumba timur\" OR \"sumba timur\"","name":"Kab. Sumba Timur","lon":120.3435506,"id":"1ae6c4fc58bcf89a57cf32fdd67922b4","lat":-9.9802103},
{"country":"indonesia","code":"5313","province":"Nusa Tenggara Timur","city":"Kab. Lembata","query":"\"kabupaten lembata\" OR \"kab. lembata\" OR \"lembata\"","name":"Kab. Lembata","lon":123.4831906,"id":"b534412257aead6c91736cacd85dcaa7","lat":-8.4719075},
{"country":"indonesia","code":"6106","province":"Kalimantan Barat","city":"Kab. Kapuas Hulu","query":"\"kabupaten kapuas hulu\" OR \"kab. kapuas hulu\" OR \"kapuas hulu\"","name":"Kab. Kapuas Hulu","lon":113.0011989,"id":"009a5d17d450b4f5e7e122ef4e55494e","lat":0.8336697},
{"country":"indonesia","code":"6112","province":"Kalimantan Barat","city":"Kab. Kubu Raya","query":"\"kabupaten kubu raya\" OR \"kab. kubu raya\" OR \"kubu raya\"","name":"Kab. Kubu Raya","lon":109.4735066,"id":"54d2ef7e36d8d91cfcb707a9c8aa9414","lat":-0.3533938},
{"country":"indonesia","code":"9201","province":"Papua Barat","city":"Kab. Sorong","query":"\"kabupaten sorong\" OR \"kab. sorong\" OR \"sorong\"","name":"Kab. Sorong","lon":131.2954834,"id":"ae46fe7d89591439d2a019b196ddaed7","lat":-0.8819986},
{"country":"indonesia","code":"9210","province":"Papua Barat","city":"Kab. Maybrat","query":"\"kabupaten maybrat\" OR \"kab. maybrat\" OR \"maybrat\"","name":"Kab. Maybrat","lon":132.3150993,"id":"3468314787f7a98341d72984a08e6d4e","lat":-1.2970979},
{"country":"indonesia","code":"6304","province":"Kalimantan Selatan","city":"Kab. Barito Kuala","query":"\"kabupaten barito kuala\" OR \"kab. barito kuala\" OR \"barito kuala\"","name":"Kab. Barito Kuala","lon":114.6667939,"id":"3cb17a27e75f0d999149166430653806","lat":-3.0714738},
{"country":"indonesia","code":"6571","province":"Kalimantan Utara","city":"Kota Tarakan","query":"\"kota tarakan\" OR \"tarakan\"","name":"Kota Tarakan","lon":117.5785049,"id":"8b23bc9e31151dd56ff16205a0adc5d8","lat":3.3273599},
{"country":"indonesia","code":"7105","province":"Sulawesi Utara","city":"Kab. Minahasa Selatan","query":"\"kabupaten minahasa selatan\" OR \"kab. minahasa selatan\" OR \"minahasa selatan\"","name":"Kab. Minahasa Selatan","lon":124.4641848,"id":"54af513bf253f7d54f499de028eb93ff","lat":1.0946773},
{"country":"indonesia","code":"7106","province":"Sulawesi Utara","city":"Kab. Minahasa Utara","query":"\"kabupaten minahasa utara\" OR \"kab. minahasa utara\" OR \"minahasa utara\"","name":"Kab. Minahasa Utara","lon":124.994751,"id":"507dbeb6e4412d3092ce0de9dceeb1f5","lat":1.5327973},
{"country":"indonesia","code":"7301","province":"Sulawesi Selatan","city":"Kab. Kepulauan Selayar","query":"\"kabupaten kepulauan selayar\" OR \"kab. kepulauan selayar\" OR \"kepulauan selayar\"","name":"Kab. Kepulauan Selayar","lon":120.5040916,"id":"23c331d9f65a9d84816844a262e5cd2d","lat":-6.0957201},
{"country":"indonesia","code":"7305","province":"Sulawesi Selatan","city":"Kab. Takalar","query":"\"kabupaten takalar\" OR \"kab. takalar\" OR \"takalar\"","name":"Kab. Takalar","lon":119.4875668,"id":"e88e8caa8310747c4852785d5c133296","lat":-5.4162493},
{"country":"indonesia","code":"7471","province":"Sulawesi Tenggara","city":"Kota Kendari","query":"\"kota kendari\" OR \"kendari\"","name":"Kota Kendari","lon":122.5129742,"id":"dd38387854cecd04ef7dd66103e2d9e4","lat":-3.9984597},
{"country":"indonesia","code":"1406","province":"Riau","city":"Kab. Rokan Hulu","query":"\"kabupaten rokan hulu\" OR \"kab. rokan hulu\" OR \"rokan hulu\"","name":"Kab. Rokan Hulu","lon":100.439656,"id":"fb0a8363944ef277f4e76bc140851207","lat":1.0410934},
{"country":"indonesia","code":"1311","province":"Sumatera Barat","city":"Kab. Solok Selatan","query":"\"kabupaten solok selatan\" OR \"kab. solok selatan\" OR \"solok selatan\"","name":"Kab. Solok Selatan","lon":101.2523792,"id":"eb34a023b9955db47680c7aaffc4fa97","lat":-1.4157329},
{"country":"indonesia","code":"1610","province":"Sumatera Selatan","city":"Kab. Ogan Ilir","query":"\"kabupaten ogan ilir\" OR \"kab. ogan ilir\" OR \"ogan ilir\"","name":"Kab. Ogan Ilir","lon":104.6121475,"id":"61f43fc891437e86152e338a11591f1d","lat":-3.426544},
{"country":"indonesia","code":"1603","province":"Sumatera Selatan","city":"Kab. Muara Enim","query":"\"kabupaten muara enim\" OR \"kab. muara enim\" OR \"muara enim\"","name":"Kab. Muara Enim","lon":104.0072348,"id":"5d3ad4921f18ac5b146c3a2819ab0936","lat":-3.7114163},
{"country":"indonesia","code":"1771","province":"Bengkulu","city":"Kota Bengkulu","query":"\"kota bengkulu\" OR \"bengkulu\"","name":"Kota Bengkulu","lon":102.2607641,"id":"cec8c332013bb3438ac4484015a54556","lat":-3.7928451},
{"country":"indonesia","code":"1671","province":"Sumatera Selatan","city":"Kota Palembang","query":"\"kota palembang\" OR \"palembang\" OR \"kota pempek\"","name":"Kota Palembang","lon":104.7754307,"id":"a2133b889ee1a109d22b0a381a6522e7","lat":-2.9760735},
{"country":"indonesia","code":"1808","province":"Lampung","city":"Kab. Way Kanan","query":"\"kabupaten way kanan\" OR \"kab. way kanan\" OR \"way kanan\"","name":"Kab. Way Kanan","lon":104.5655273,"id":"8c8cf838db8f16cec0ec59b8649a0570","lat":-4.4963689},
{"country":"indonesia","code":"3173","province":"DKI Jakarta","city":"Kota Jakarta Barat","query":"\"kota jakarta barat\" OR \"jakarta barat\" OR \"jakbar\" OR \"west jakarta\"","name":"Kota Jakarta Barat","lon":106.7588494,"id":"00eaf82cdd625cb1edd38c198bf0a148","lat":-6.1683295},
{"country":"indonesia","code":"1812","province":"Lampung","city":"Kab. Tulang Bawang Barat","query":"\"kabupaten tulang bawang barat\" OR \"kab. tulang bawang barat\" OR \"tulang bawang barat\"","name":"Kab. Tulang Bawang Barat","lon":105.1492869,"id":"c7da3125e2103c6718be7a762fdb601a","lat":-4.54418},
{"country":"indonesia","code":"3205","province":"Jawa Barat","city":"Kab. Garut","query":"\"kabupaten garut\" OR \"kab. garut\" OR \"garut\" OR \"kota domba\" OR \"swiss van java\"","name":"Kab. Garut","lon":107.763621,"id":"b8867249a4c69f08df504098e92fd018","lat":-7.5012204},
{"country":"indonesia","code":"1871","province":"Lampung","city":"Kota Bandar Lampung","query":"\"kota bandar lampung\" OR \"bandar lampung\" OR \"kota tapis berseri\"","name":"Kota Bandar Lampung","lon":105.2667887,"id":"3a9f548adb1afc27a3b7a8bfbf96b6d3","lat":-5.3971396},
{"country":"indonesia","code":"3215","province":"Jawa Barat","city":"Kab. Karawang","query":"\"kabupaten karawang\" OR \"kab. karawang\" OR \"karawang\" OR \"kota pangkal perjuangan\" OR \"kota industri\"","name":"Kab. Karawang","lon":107.3375791,"id":"7564bf7d1818965497f7c7c143f1a95d","lat":-6.3227303},
{"country":"indonesia","code":"3206","province":"Jawa Barat","city":"Kab. Tasikmalaya","query":"\"kabupaten tasikmalaya\" OR \"kab. tasikmalaya\" OR \"tasikmalaya\"","name":"Kab. Tasikmalaya","lon":108.1428669,"id":"78c665ade0242f0a95fcefc0ab50e321","lat":-7.6513306},
{"country":"indonesia","code":"3274","province":"Jawa Barat","city":"Kota Cirebon","query":"\"kota cirebon\" OR \"cirebon\" OR \"kota udang\" OR \"kota wali\" OR \"kota terasi\"","name":"Kota Cirebon","lon":108.5523164,"id":"87f2acbe39bceebffc53417b94ec45aa","lat":-6.7320229},
{"country":"indonesia","code":"3217","province":"Jawa Barat","city":"Kab. Bandung Barat","query":"\"kabupaten bandung barat\" OR \"kab. bandung barat\" OR \"bandung barat\"","name":"Kab. Bandung Barat","lon":107.4919767,"id":"48b5dad4e760162767581851993f6829","lat":-6.8652214},
{"country":"indonesia","code":"3304","province":"Jawa Tengah","city":"Kab. Banjarnegara","query":"\"kabupaten banjarnegara\" OR \"kab. banjarnegara\" OR \"banjarnegara\"","name":"Kab. Banjarnegara","lon":109.6163185,"id":"62cbc30b8bd17235eb1f5645f6990fe6","lat":-7.3794368},
{"country":"indonesia","code":"3218","province":"Jawa Barat","city":"Kab. Pangandaran","query":"\"kabupaten pangandaran\" OR \"kab. pangandaran\" OR \"pangandaran\"","name":"Kab. Pangandaran","lon":108.65,"id":"ae2cc1c54f2431fc90cab391a64e0092","lat":-7.683333},
{"country":"indonesia","code":"3319","province":"Jawa Tengah","city":"Kab. Kudus","query":"\"kabupaten kudus\" OR \"kab. kudus\" OR \"kudus\" OR \"kota kretek\" OR \"the taste of java\" OR \"kota semarak\" OR \"yarusalem van java\"","name":"Kab. Kudus","lon":110.8791343,"id":"d98822dfd67ae8e161ea1413adb77e3c","lat":-6.7726186},
{"country":"indonesia","code":"3272","province":"Jawa Barat","city":"Kota Sukabumi","query":"\"kota sukabumi\" OR \"sukabumi\"","name":"Kota Sukabumi","lon":106.9299579,"id":"9bef61cd9734b2b89ca0805252b08d93","lat":-6.9277361},
{"country":"indonesia","code":"3513","province":"Jawa Timur","city":"Kab. Probolinggo","query":"\"kabupaten probolinggo\" OR \"kab. probolinggo\" OR \"probolinggo\"","name":"Kab. Probolinggo","lon":113.4776098,"id":"6e76a7b4bc6271c6f9366dc0723fb7dd","lat":-7.8717562},
{"country":"indonesia","code":"3315","province":"Jawa Tengah","city":"Kab. Grobogan","query":"\"kabupaten grobogan\" OR \"kab. grobogan\" OR \"grobogan\"","name":"Kab. Grobogan","lon":110.9625854,"id":"f8170d772e7502ba23cfc97832077a48","lat":-7.0217194},
{"country":"indonesia","code":"3514","province":"Jawa Timur","city":"Kab. Pasuruan","query":"\"kabupaten pasuruan\" OR \"kab. pasuruan\" OR \"pasuruan\"","name":"Kab. Pasuruan","lon":112.858217,"id":"a233a08d25733f74bfb94ac8ebad681d","lat":-7.7859961},
{"country":"indonesia","code":"3574","province":"Jawa Timur","city":"Kota Probolinggo","query":"\"kota probolinggo\" OR \"probolinggo\"","name":"Kota Probolinggo","lon":113.2037131,"id":"686a2db027987a9c7d859c561f93507e","lat":-7.7764226},
{"country":"indonesia","code":"3522","province":"Jawa Timur","city":"Kab. Bojonegoro","query":"\"kabupaten bojonegoro\" OR \"kab. bojonegoro\" OR \"bojonegoro\" OR \"kota tayub\" OR \"kota ledre\"","name":"Kab. Bojonegoro","lon":111.7614661,"id":"17248034a53b1c23f77c2b8ef6012f52","lat":-7.3174629},
{"country":"indonesia","code":"3577","province":"Jawa Timur","city":"Kota Madiun","query":"\"kota madiun\" OR \"madiun\" OR \"kota gadis\" OR \"kota brem\" OR \"kota kereta api\" OR \"kota kharismatik\"","name":"Kota Madiun","lon":111.5300159,"id":"c6bcb9848ad57d01f6094fcaf0b6d616","lat":-7.6310587},
{"country":"indonesia","code":"3524","province":"Jawa Timur","city":"Kab. Lamongan","query":"\"kabupaten lamongan\" OR \"kab. lamongan\" OR \"lamongan\" OR \"kota soto\"","name":"Kab. Lamongan","lon":112.3337769,"id":"c159f84f200a075d91a12416bcb6c3e9","lat":-7.1269261},
{"country":"indonesia","code":"3673","province":"Banten","city":"Kota Serang","query":"\"kota serang\" OR \"serang\" OR \"kota santri\"","name":"Kota Serang","lon":106.1639749,"id":"aa39bfd84a746236b696c37713458121","lat":-6.1103661},
{"country":"indonesia","code":"5171","province":"Bali","city":"Kota Denpasar","query":"\"kota denpasar\" OR \"denpasar\"","name":"Kota Denpasar","lon":115.2126293,"id":"e9cec7b25ffac2b9521efda42e2c6bc9","lat":-8.6704582},
{"country":"indonesia","code":"5207","province":"Nusa Tenggara Barat","city":"Kab. Sumbawa Barat","query":"\"kabupaten sumbawa barat\" OR \"kab. sumbawa barat\" OR \"sumbawa barat\"","name":"Kab. Sumbawa Barat","lon":116.8910342,"id":"6cd4fab40c4fe5cc1f2e50e610012908","lat":-8.9292907},
{"country":"indonesia","code":"5309","province":"Nusa Tenggara Timur","city":"Kab. Ngada","query":"\"kabupaten ngada\" OR \"kab. ngada\" OR \"ngada\"","name":"Kab. Ngada","lon":120.9876321,"id":"efca9bec4c1c03a46d0fb72fdf88b72f","lat":-8.7430424},
{"country":"indonesia","code":"5305","province":"Nusa Tenggara Timur","city":"Kab. Alor","query":"\"kabupaten alor\" OR \"kab. alor\" OR \"alor\"","name":"Kab. Alor","lon":124.5528387,"id":"d6337abf9f2814db13d281cea4a31bd3","lat":-8.2928427},
{"country":"indonesia","code":"5317","province":"Nusa Tenggara Timur","city":"Kab. Sumba Tengah","query":"\"kabupaten sumba tengah\" OR \"kab. sumba tengah\" OR \"sumba tengah\"","name":"Kab. Sumba Tengah","lon":119.6962677,"id":"3bf8306a8251b9658daad4ac47465aab","lat":-9.4879226},
{"country":"indonesia","code":"6306","province":"Kalimantan Selatan","city":"Kab. Hulu Sungai Selatan","query":"\"kabupaten hulu sungai selatan\" OR \"kab. hulu sungai selatan\" OR \"hulu sungai selatan\"","name":"Kab. Hulu Sungai Selatan","lon":115.2363408,"id":"22437538aea0868895a91797e2d168b6","lat":-2.7662681},
{"country":"indonesia","code":"5321","province":"Nusa Tenggara Timur","city":"Kab. Malaka","query":"\"kabupaten malaka\" OR \"kab. malaka\" OR \"malaka\"","name":"Kab. Malaka","lon":124.9066,"id":"0156939337c42c844654cd9faf98fc53","lat":-9.5309},
{"country":"indonesia","code":"6309","province":"Kalimantan Selatan","city":"Kab. Tabalong","query":"\"kabupaten tabalong\" OR \"kab. tabalong\" OR \"tabalong\"","name":"Kab. Tabalong","lon":115.5681084,"id":"2814069d5499588ebbdfdd39d4c8634f","lat":-1.864302},
{"country":"indonesia","code":"6171","province":"Kalimantan Barat","city":"Kota Pontianak","query":"\"kota pontianak\" OR \"pontianak\"","name":"Kota Pontianak","lon":109.3425039,"id":"c711265e5fbb2e9d3ad57870e8ddddf8","lat":-0.0263303},
{"country":"indonesia","code":"6502","province":"Kalimantan Utara","city":"Kab. Malinau","query":"\"kabupaten malinau\" OR \"kab. malinau\" OR \"malinau\"","name":"Kab. Malinau","lon":116.0413889,"id":"b33864157349a39b8a1f50f009f95b88","lat":3.0730929},
{"country":"indonesia","code":"6172","province":"Kalimantan Barat","city":"Kota Singkawang","query":"\"kota singkawang\" OR \"singkawang\"","name":"Kota Singkawang","lon":108.9872049,"id":"483a186352f6bd82c8e8bf11b7674c95","lat":0.9060204},
{"country":"indonesia","code":"7171","province":"Sulawesi Utara","city":"Kota Manado","query":"\"kota manado\" OR \"manado\"","name":"Kota Manado","lon":124.8420794,"id":"983e5b3f67e3dc13c0bd891f09ca304e","lat":1.4748305},
{"country":"indonesia","code":"9211","province":"Papua Barat","city":"Kab. Manokwari Selatan","query":"\"kabupaten manokwari selatan\" OR \"kab. manokwari selatan\" OR \"manokwari selatan\"","name":"Kab. Manokwari Selatan","lon":134.0008674,"id":"d1f33d0f94c2bca3c54d0d2bd6d50cab","lat":-0.9135107},
{"country":"indonesia","code":"7271","province":"Sulawesi Tengah","city":"Kota Palu","query":"\"kota palu\" OR \"palu\"","name":"Kota Palu","lon":119.8779987,"id":"b4899afb038db32eb91ddf5e8c3b2404","lat":-0.9002915},
{"country":"indonesia","code":"6213","province":"Kalimantan Tengah","city":"Kab. Barito Timur","query":"\"kabupaten barito timur\" OR \"kab. barito timur\" OR \"barito timur\"","name":"Kab. Barito Timur","lon":115.188916,"id":"cef83c6f995c0a9b295aec85a627a39f","lat":-2.0123999},
{"country":"indonesia","code":"7312","province":"Sulawesi Selatan","city":"Kab. Soppeng","query":"\"kabupaten soppeng\" OR \"kab. soppeng\" OR \"soppeng\"","name":"Kab. Soppeng","lon":119.9277947,"id":"6bd7e29fc8c166f2974ed89fd98ffe3b","lat":-4.3518541},
{"country":"indonesia","code":"6471","province":"Kalimantan Timur","city":"Kota Balikpapan","query":"\"kota balikpapan\" OR \"balikpapan\"","name":"Kota Balikpapan","lon":116.8528526,"id":"2dc52d2d6efb9e5e098e31d8b1ec7569","lat":-1.2379274},
{"country":"indonesia","code":"7313","province":"Sulawesi Selatan","city":"Kab. Wajo","query":"\"kabupaten wajo\" OR \"kab. wajo\" OR \"wajo\"","name":"Kab. Wajo","lon":120.0665236,"id":"e90bc669c6d49f95204092e3c30db62f","lat":-4.022229},
{"country":"indonesia","code":"6501","province":"Kalimantan Utara","city":"Kab. Bulungan","query":"\"kabupaten bulungan\" OR \"kab. bulungan\" OR \"bulungan\"","name":"Kab. Bulungan","lon":117.1,"id":"f38fca8621448f930a7077212da4ebe3","lat":2.9},
{"country":"indonesia","code":"7316","province":"Sulawesi Selatan","city":"Kab. Enrekang","query":"\"kabupaten enrekang\" OR \"kab. enrekang\" OR \"enrekang\"","name":"Kab. Enrekang","lon":119.8815203,"id":"5d7f6b8459d4b84f547abf9f22b9e9ae","lat":-3.4590744},
{"country":"indonesia","code":"7104","province":"Sulawesi Utara","city":"Kab. Kepulauan Talaud","query":"\"kabupaten kepulauan talaud\" OR \"kab. kepulauan talaud\" OR \"kepulauan talaud\"","name":"Kab. Kepulauan Talaud","lon":126.8034921,"id":"566bb6ecd3fd7257e6cceb44800da0e4","lat":4.3066741},
{"country":"indonesia","code":"7409","province":"Sulawesi Tenggara","city":"Kab. Konawe Utara","query":"\"kabupaten konawe utara\" OR \"kab. konawe utara\" OR \"konawe utara\"","name":"Kab. Konawe Utara","lon":122.0837445,"id":"671dcbfc57665301d770dd1b7dab10e4","lat":-3.3803291},
{"country":"indonesia","code":"7173","province":"Sulawesi Utara","city":"Kota Tomohon","query":"\"kota tomohon\" OR \"tomohon\"","name":"Kota Tomohon","lon":124.8405081,"id":"ca896dbfad4559ead22eec6c1f3ff28f","lat":1.3229337},
{"country":"indonesia","code":"7603","province":"Sulawesi Barat","city":"Kab. Mamasa","query":"\"kabupaten mamasa\" OR \"kab. mamasa\" OR \"mamasa\"","name":"Kab. Mamasa","lon":119.3250347,"id":"ed19942d1cc9e8f7a00fe29754dfa396","lat":-2.9118209},
{"country":"indonesia","code":"7203","province":"Sulawesi Tengah","city":"Kab. Donggala","query":"\"kabupaten donggala\" OR \"kab. donggala\" OR \"donggala\"","name":"Kab. Donggala","lon":119.8352303,"id":"10d8af550bd5e08bce373cb2c7e03343","lat":-0.4233155},
{"country":"indonesia","code":"8102","province":"Maluku","city":"Kab. Maluku Tenggara","query":"\"kabupaten maluku tenggara\" OR \"kab. maluku tenggara\" OR \"maluku tenggara\"","name":"Kab. Maluku Tenggara","lon":132.7271587,"id":"36cdaa2d44affc67d67538b75327cd90","lat":-5.7512455},
{"country":"indonesia","code":"7307","province":"Sulawesi Selatan","city":"Kab. Sinjai","query":"\"kabupaten sinjai\" OR \"kab. sinjai\" OR \"sinjai\"","name":"Kab. Sinjai","lon":120.112735,"id":"443c22c1fe13503c66fc5271ac9fcb79","lat":-5.2171961},
{"country":"indonesia","code":"7407","province":"Sulawesi Tenggara","city":"Kab. Wakatobi","query":"\"kabupaten wakatobi\" OR \"kab. wakatobi\" OR \"wakatobi\"","name":"Kab. Wakatobi","lon":123.5951925,"id":"ec1179d6560c3266c56a0f3569b2fc95","lat":-5.3264442},
{"country":"indonesia","code":"9110","province":"Papua","city":"Kab. Sarmi","query":"\"kabupaten sarmi\" OR \"kab. sarmi\" OR \"sarmi\"","name":"Kab. Sarmi","lon":139.2030851,"id":"9e670349254be2e6d6693913e3b78da2","lat":-2.4678144},
{"country":"indonesia","code":"7604","province":"Sulawesi Barat","city":"Kab. Polewali Mandar","query":"\"kabupaten polewali mandar\" OR \"kab. polewali mandar\" OR \"polewali mandar\"","name":"Kab. Polewali Mandar","lon":119.1390642,"id":"b012696ecc7ec18af8034def6f046f93","lat":-3.3419323},
{"country":"indonesia","code":"7605","province":"Sulawesi Barat","city":"Kab. Majene","query":"\"kabupaten majene\" OR \"kab. majene\" OR \"majene\"","name":"Kab. Majene","lon":118.9062794,"id":"ccbe4e134d316464ca0c479c332faf37","lat":-3.0297251},
{"country":"indonesia","code":"8105","province":"Maluku","city":"Kab. Seram Bagian Timur","query":"\"kabupaten seram bagian timur\" OR \"kab. seram bagian timur\" OR \"seram bagian timur\"","name":"Kab. Seram Bagian Timur","lon":130.2271243,"id":"4c6b7c5077574361cc882c0878ca28d0","lat":-3.4233267},
{"country":"indonesia","code":"8205","province":"Maluku Utara","city":"Kab. Kepulauan Sula","query":"\"kabupaten kepulauan sula\" OR \"kab. kepulauan sula\" OR \"kepulauan sula\"","name":"Kab. Kepulauan Sula","lon":125.958777,"id":"8d298c1c25d4b4eb9dc33583cff7a862","lat":-1.8321222},
{"country":"indonesia","code":"8207","province":"Maluku Utara","city":"Kab. Pulau Morotai","query":"\"kabupaten pulau morotai\" OR \"kab. pulau morotai\" OR \"pulau morotai\"","name":"Kab. Pulau Morotai","lon":128.4008357,"id":"f11cd48f2d38a5e8b209aafe61bc28c5","lat":2.3656672},
{"country":"indonesia","code":"9103","province":"Papua","city":"Kab. Jayapura","query":"\"kabupaten jayapura\" OR \"kab. jayapura\" OR \"jayapura\"","name":"Kab. Jayapura","lon":139.8547266,"id":"ecdb423648600187f686576f1443ae77","lat":-2.987923},
{"country":"indonesia","code":"9113","province":"Papua","city":"Kab. Yahukimo","query":"\"kabupaten yahukimo\" OR \"kab. yahukimo\" OR \"yahukimo\"","name":"Kab. Yahukimo","lon":139.5279996,"id":"9a34f06ed282a593abea964193896d5f","lat":-4.4939717},
{"country":"indonesia","code":"9127","province":"Papua","city":"Kab. Intan Jaya","query":"\"kabupaten intan jaya\" OR \"kab. intan jaya\" OR \"intan jaya\"","name":"Kab. Intan Jaya","lon":136.7478493,"id":"fee5ca8e34353d46eb1b356ca36b391b","lat":-3.5076422},
{"country":"indonesia","code":"1601","province":"Sumatera Selatan","city":"Kab. Ogan Komering Ulu","query":"\"kabupaten ogan komering ulu\" OR \"kab. ogan komering ulu\" OR \"ogan komering ulu\"","name":"Kab. Ogan Komering Ulu","lon":104.0072348,"id":"90f72094fac8010cf2aaae3de523a7f0","lat":-4.0283486},
{"country":"indonesia","code":"1602","province":"Sumatera Selatan","city":"Kab. Ogan Komering Ilir","query":"\"kabupaten ogan komering ilir\" OR \"kab. ogan komering ilir\" OR \"ogan komering ilir\"","name":"Kab. Ogan Komering Ilir","lon":105.2194808,"id":"23699b6a46c8c0d6eadcde479f36202c","lat":-3.4559744},
{"country":"indonesia","code":"1806","province":"Lampung","city":"Kab. Tanggamus","query":"\"kabupaten tanggamus\" OR \"kab. tanggamus\" OR \"tanggamus\"","name":"Kab. Tanggamus","lon":104.5655273,"id":"88759b3f23783e8fedd3e871a86451c4","lat":-5.3027489},
{"country":"indonesia","code":"1902","province":"Kepulauan Bangka Belitung","city":"Kab. Belitung","query":"\"kabupaten belitung\" OR \"kab. belitung\" OR \"belitung\" OR \"negeri laskar pelangi\"","name":"Kab. Belitung","lon":107.763621,"id":"8df631e69d970d6eca36b53932dc97b1","lat":-2.7216743},
{"country":"indonesia","code":"1971","province":"Kepulauan Bangka Belitung","city":"Kota Pangkal Pinang","query":"\"kota pangkal pinang\" OR \"pangkal pinang\" OR \"pangkalpinang\"","name":"Kota Pangkal Pinang","lon":106.1169299,"id":"8abdfb6ec3791491b4fbb6e35ae731e8","lat":-2.1316266},
{"country":"indonesia","code":"3172","province":"DKI Jakarta","city":"Kota Jakarta Utara","query":"\"kota jakarta utara\" OR \"jakarta utara\" OR \"jakut\" OR \"north jakarta\"","name":"Kota Jakarta Utara","lon":106.7741133,"id":"c3aa45e89326626203a97f381b6410e4","lat":-6.1214609},
{"country":"indonesia","code":"3214","province":"Jawa Barat","city":"Kab. Purwakarta","query":"\"kabupaten purwakarta\" OR \"kab. purwakarta\" OR \"purwakarta\"","name":"Kab. Purwakarta","lon":107.4321959,"id":"7a8c60193bc75071e0d1f755ea63c5bb","lat":-6.5649241},
{"country":"indonesia","code":"3271","province":"Jawa Barat","city":"Kota Bogor","query":"\"kota bogor\" OR \"bogor\" OR \"kota hujan\" OR \"kota petir\" OR \"kota seribu angkot\" OR \"kota 1000 angkot\"","name":"Kota Bogor","lon":106.8060388,"id":"7012920cbe88863bd1f76c7ee0ce754d","lat":-6.5971469},
{"country":"indonesia","code":"3501","province":"Jawa Timur","city":"Kab. Pacitan","query":"\"kabupaten pacitan\" OR \"kab. pacitan\" OR \"pacitan\"","name":"Kab. Pacitan","lon":111.1414226,"id":"86423ca0f4678a8314599fbb05cc1761","lat":-8.126331},
{"country":"indonesia","code":"3515","province":"Jawa Timur","city":"Kab. Sidoarjo","query":"\"kabupaten sidoarjo\" OR \"kab. sidoarjo\" OR \"sidoarjo\" OR \"kota udang\" OR \"kota lumpur\"","name":"Kab. Sidoarjo","lon":112.7015495,"id":"cc3aa509c7f138c30c83e07ae462c07d","lat":-7.4497718},
{"country":"indonesia","code":"3604","province":"Banten","city":"Kab. Serang","query":"\"kabupaten serang\" OR \"kab. serang\" OR \"serang\"","name":"Kab. Serang","lon":106.040506,"id":"c58b68a91118d80009e2c8e20d58adc3","lat":-6.1397339},
{"country":"indonesia","code":"5201","province":"Nusa Tenggara Barat","city":"Kab. Lombok Barat","query":"\"kabupaten lombok barat\" OR \"kab. lombok barat\" OR \"lombok barat\"","name":"Kab. Lombok Barat","lon":116.1123078,"id":"15efa0385aa759eb34ac87e2e4501928","lat":-8.6464599},
{"country":"indonesia","code":"5302","province":"Nusa Tenggara Timur","city":"Kab. Timor Tengah Selatan","query":"\"kabupaten timor tengah selatan\" OR \"kab. timor tengah selatan\" OR \"timor tengah selatan\"","name":"Kab. Timor Tengah Selatan","lon":124.4198243,"id":"824a5029cb53815499c2ad819ef49faf","lat":-9.7762816},
{"country":"indonesia","code":"5307","province":"Nusa Tenggara Timur","city":"Kab. Sikka","query":"\"kabupaten sikka\" OR \"kab. sikka\" OR \"sikka\"","name":"Kab. Sikka","lon":122.1291843,"id":"ee97bba6a6b5ba99e3588da2d2e1b992","lat":-8.6766175},
{"country":"indonesia","code":"5316","province":"Nusa Tenggara Timur","city":"Kab. Nagekeo","query":"\"kabupaten nagekeo\" OR \"kab. nagekeo\" OR \"nagekeo\"","name":"Kab. Nagekeo","lon":121.3084088,"id":"f5004e7a6fee07c9226fe73730a77f44","lat":-8.6753545},
{"country":"indonesia","code":"6212","province":"Kalimantan Tengah","city":"Kab. Murung Raya","query":"\"kabupaten murung raya\" OR \"kab. murung raya\" OR \"murung raya\"","name":"Kab. Murung Raya","lon":114.3341432,"id":"027e9a51909cf135b003f2f460b22f9f","lat":-0.1362171},
{"country":"indonesia","code":"6408","province":"Kalimantan Timur","city":"Kab. Kutai Timur","query":"\"kabupaten kutai timur\" OR \"kab. kutai timur\" OR \"kutai timur\"","name":"Kab. Kutai Timur","lon":116.9852422,"id":"a0dfe0172871b1df0f411f7505be300b","lat":0.9433774},
{"country":"indonesia","code":"7302","province":"Sulawesi Selatan","city":"Kab. Bulukumba","query":"\"kabupaten bulukumba\" OR \"kab. bulukumba\" OR \"bulukumba\"","name":"Kab. Bulukumba","lon":120.2051096,"id":"5bf6560721e950ee0d2e04bc91dbdbe0","lat":-5.4329368},
{"country":"indonesia","code":"7306","province":"Sulawesi Selatan","city":"Kab. Gowa","query":"\"kabupaten gowa\" OR \"kab. gowa\" OR \"gowa\"","name":"Kab. Gowa","lon":119.742604,"id":"8818cd5825d549c036986c675c63bc03","lat":-5.3102888},
{"country":"indonesia","code":"7405","province":"Sulawesi Tenggara","city":"Kab. Konawe Selatan","query":"\"kabupaten konawe selatan\" OR \"kab. konawe selatan\" OR \"konawe selatan\"","name":"Kab. Konawe Selatan","lon":122.4467238,"id":"4ad4b5a4eef13cb3aab387e5a4427b0e","lat":-4.2027915},
{"country":"indonesia","code":"7408","province":"Sulawesi Tenggara","city":"Kab. Kolaka Utara","query":"\"kabupaten kolaka utara\" OR \"kab. kolaka utara\" OR \"kolaka utara\"","name":"Kab. Kolaka Utara","lon":121.1710389,"id":"e89f286664d5d4bab67658db60c914a7","lat":-3.1347227},
{"country":"indonesia","code":"7571","province":"Gorontalo","city":"Kota Gorontalo","query":"\"kota gorontalo\" OR \"gorontalo\"","name":"Kota Gorontalo","lon":123.0567693,"id":"a0778de6132d99c28d20b353776c3b6d","lat":0.5435442},
{"country":"indonesia","code":"9122","province":"Papua","city":"Kab. Yalimo","query":"\"kabupaten yalimo\" OR \"kab. yalimo\" OR \"yalimo\"","name":"Kab. Yalimo","lon":139.4466005,"id":"e8dcfe31a5bbe2e2360461e692bf0cb0","lat":-3.7852847},
{"country":"indonesia","code":"8172","province":"Maluku","city":"Kota Tual","query":"\"kota tual\" OR \"tual\"","name":"Kota Tual","lon":132.3446399,"id":"12fca5978a92fe5275089f712743d026","lat":-5.5680317},
{"country":"indonesia","code":"8206","province":"Maluku Utara","city":"Kab. Halmahera Timur","query":"\"kabupaten halmahera timur\" OR \"kab. halmahera timur\" OR \"halmahera timur\"","name":"Kab. Halmahera Timur","lon":128.4849923,"id":"633181c63595969d7ac784ae88c49675","lat":1.3121235},
{"country":"indonesia","code":"9117","province":"Papua","city":"Kab. Mappi","query":"\"kabupaten mappi\" OR \"kab. mappi\" OR \"mappi\"","name":"Kab. Mappi","lon":139.6911374,"id":"5d6e049fd7da18a205adbe98e78963b6","lat":-6.7606468},
{"country":"indonesia","code":"9126","province":"Papua","city":"Kab. Dogiyai","query":"\"kabupaten dogiyai\" OR \"kab. dogiyai\" OR \"dogiyai\"","name":"Kab. Dogiyai","lon":135.6763443,"id":"3fe2ba17a56353d53dd7c3c4ace0d193","lat":-4.0454139},
{"country":"indonesia","code":"9171","province":"Papua","city":"Kota Jayapura","query":"\"kota jayapura\" OR \"jayapura\"","name":"Kota Jayapura","lon":140.6689995,"id":"152c030dbc5ee1fab36b032f81718e8d","lat":-2.5916025},
{"country":"indonesia","code":"8106","province":"Maluku","city":"Kab. Seram Bagian Barat","query":"\"kabupaten seram bagian barat\" OR \"kab. seram bagian barat\" OR \"seram bagian barat\"","name":"Kab. Seram Bagian Barat","lon":128.4008357,"id":"80f0efb6bb8e310844665e4e61388af0","lat":-3.1271575},
{"country":"indonesia","code":"9104","province":"Papua","city":"Kab. Nabire","query":"\"kabupaten nabire\" OR \"kab. nabire\" OR \"nabire\"","name":"Kab. Nabire","lon":135.7520985,"id":"d6b33e61ba1db661e041e1007d1c6127","lat":-3.5095462},
{"country":"indonesia","code":"7411","province":"Sulawesi Tenggara","city":"Kab. Kolaka Timur","query":"\"kabupaten kolaka timur\" OR \"kab. kolaka timur\" OR \"kolaka timur\"","name":"Kab. Kolaka Timur","lon":122.9647762,"id":"b494adddc61049d70f737f12217cd8a1","lat":-8.1627404},
{"country":"indonesia","code":"7414","province":"Sulawesi Tenggara","city":"Kab. Buton Tengah","query":"\"kabupaten buton tengah\" OR \"kab. buton tengah\" OR \"buton tengah\"","name":"Kab. Buton Tengah","lon":122.4267716,"id":"9b0b4b34504face5d8479f13abc0dd84","lat":-3.0450866},
{"country":"indonesia","code":"7415","province":"Sulawesi Tenggara","city":"Kab. Buton Selatan","query":"\"kabupaten buton selatan\" OR \"kab. buton selatan\" OR \"buton selatan\"","name":"Kab. Buton Selatan","lon":121.3397933,"id":"67151330648f19f285c1f6724c6af844","lat":-2.5199698},
{"country":"indonesia","code":"7413","province":"Sulawesi Tenggara","city":"Kab. Muna Barat","query":"\"kabupaten muna barat\" OR \"kab. muna barat\" OR \"muna barat\"","name":"Kab. Muna Barat","lon":122.484364,"id":"0104458dd565fb8dc934ce23f526e242","lat":-4.877581},
{"country":"indonesia","code":"7606","province":"Sulawesi Barat","city":"Kab. Mamuju Tengah","query":"\"kabupaten mamuju tengah\" OR \"kab. mamuju tengah\" OR \"mamuju tengah\"","name":"Kab. Mamuju Tengah","lon":119.544417,"id":"2e3445b09a27779268daf2290aa556c7","lat":-1.978398},
{"country":"indonesia","code":"9105","province":"Papua","city":"Kab. Kepulauan Yapen","query":"\"kabupaten kepulauan yapen\" OR \"kab. kepulauan yapen\" OR \"kepulauan yapen\"","name":"Kab. Kepulauan Yapen","lon":136.367660782307,"id":"6d26160c622e95f1189d6496449b41fb","lat":-1.7564788},
{"country":"indonesia","code":"8208","province":"Maluku Utara","city":"Kab. Pulau Taliabu","query":"\"kabupaten pulau taliabu\" OR \"kab. pulau taliabu\" OR \"pulau taliabu\"","name":"Kab. Pulau Taliabu","lon":124.8027711,"id":"4e5fda297dc0438adb4387d49132efda","lat":-1.7886947},
{"country":"indonesia","code":"7412","province":"Sulawesi Tenggara","city":"Kab. Konawe Kepulauan","query":"\"kabupaten konawe kepulauan\" OR \"kab. konawe kepulauan\" OR \"konawe kepulauan\"","name":"Kab. Konawe Kepulauan","lon":122.0848634,"id":"bf565b06c3980ebfc5447b7422c39661","lat":-3.9221451},
{"country":"indonesia","code":"7504","province":"Gorontalo","city":"Kab. Pahuwato","query":"\"kabupaten pahuwato\" OR \"kab. pahuwato\" OR \"pahuwato\"","name":"Kab. Pahuwato","lon":121.71384,"id":"f4d3e304934852443fa24c4fea17226e","lat":0.687169}]
